Site_Code,Site_Name,Site_Status,Country,CP2 Region,Area_ha,Longitude,Latitude,Established_Date,Agency,WDPA_Code,source_file,mpa_type,load_timestamp,Pre-Designation Code,Non-marine interest features,cSAC Established Date,SCI Confirmation Date,SAC Designation Date
UKMCZ0076,Cape Bank,MCZ - Secretary of State,England inshore & England offshore,Western Channel and Celtic Sea,47415.9650871169,-5.9204033409,50.2166732049999,20-05-2019,JNCC and NE,555691671.0,UKOffshoreMPAs.xlsx,Offshore MPA,2025-08-05T13:26:43.314100,,,,,
UKNCMPA020,Central Fladen,NCMPA,Scotland offshore,Northern North Sea,92500.0,-0.2402778,59.0425,23-07-2014,JNCC,555583051.0,UKOffshoreMPAs.xlsx,Offshore MPA,2025-08-05T13:26:43.314100,,,,,
UKNCMPA021,East of Gannet and Montrose Fields,NCMPA,Scotland offshore,Northern North Sea,183900.0,1.2891667,57.2108333,23-07-2014,JNCC,555560481.0,UKOffshoreMPAs.xlsx,Offshore MPA,2025-08-05T13:26:43.314100,,,,,
UKMCZ0023,East of Haig Fras,MCZ - Secretary of State,England offshore,Western Channel and Celtic Sea,40000.0,-6.65404603,50.4986753649,21-11-2013,JNCC,555583027.0,UKOffshoreMPAs.xlsx,Offshore MPA,2025-08-05T13:26:43.314100,,,,,
UKMCZ0077,East of Start Point,MCZ - Secretary of State,England inshore & England offshore,Eastern Channel,11552.8498451382,-3.0945654682,50.4172685154999,20-05-2019,JNCC and NE,555691633.0,UKOffshoreMPAs.xlsx,Offshore MPA,2025-08-05T13:26:43.314100,,,,,
UKMCZ0043,Farnes East,MCZ - Secretary of State,England inshore & England offshore,Northern North Sea,94499.43,-1.241758,55.684051,12-01-2016,JNCC and NE,555622023.0,UKOffshoreMPAs.xlsx,Offshore MPA,2025-08-05T13:26:43.314100,,,,,
UKNCMPA022,Faroe-Shetland Sponge Belt,NCMPA,Scotland offshore,Atlantic North-West Approaches & Scottish Continental Shelf,527800.0,-3.0780556,60.8558333,23-07-2014,JNCC,555583053.0,UKOffshoreMPAs.xlsx,Offshore MPA,2025-08-05T13:26:43.314100,,,,,
UKNCMPA018,Firth of Forth Banks Complex,NCMPA,Scotland inshore & Scotland offshore,Northern North Sea,213000.0,-1.6216667,56.455,23-07-2014,JNCC,555583049.0,UKOffshoreMPAs.xlsx,Offshore MPA,2025-08-05T13:26:43.314100,,,,,
UKMCZ0046,Fulmar,MCZ - Secretary of State,England offshore,Northern North Sea,243531.84,2.176185,56.35048,12-01-2016,JNCC,555622024.0,UKOffshoreMPAs.xlsx,Offshore MPA,2025-08-05T13:26:43.314100,,,,,
UKNCMPA023,Geikie Slide and Hebridean Slope,NCMPA,Scotland offshore,Atlantic North-West Approaches & Scottish Continental Shelf,221500.0,-9.1711111,58.3705556,23-07-2014,JNCC,555583054.0,UKOffshoreMPAs.xlsx,Offshore MPA,2025-08-05T13:26:43.314100,,,,,
UKMCZ0047,Greater Haig Fras,MCZ - Secretary of State,England offshore,Western Channel and Celtic Sea,203960.97,-7.794021,50.301373,12-01-2016,JNCC,555622025.0,UKOffshoreMPAs.xlsx,Offshore MPA,2025-08-05T13:26:43.314100,,,,,
UKNCMPA024,Hatton-Rockall Basin,NCMPA,Scotland offshore,Atlantic North-West Approaches,125600.0,-16.4016667,58.0591667,23-07-2014,JNCC,555583055.0,UKOffshoreMPAs.xlsx,Offshore MPA,2025-08-05T13:26:43.314100,,,,,
UKMCZ0078,Holderness Offshore,MCZ - Secretary of State,England inshore & England offshore,Southern North Sea,117611.228798106,0.4393120334,53.8184122588999,20-05-2019,JNCC and NE,555691634.0,UKOffshoreMPAs.xlsx,Offshore MPA,2025-08-05T13:26:43.314100,,,,,
UKMCZ0079,Inner Bank,MCZ - Secretary of State,England inshore & England offshore,Eastern Channel,19902.861069307,0.8806747744,50.7343857748,20-05-2019,JNCC and NE,555691635.0,UKOffshoreMPAs.xlsx,Offshore MPA,2025-08-05T13:26:43.314100,,,,,
UKMCZ0080,Kentish Knock East,MCZ - Secretary of State,England inshore & England offshore,Southern North Sea,9639.28447959709,1.7983551307,51.6650974955,20-05-2019,JNCC and NE,555691672.0,UKOffshoreMPAs.xlsx,Offshore MPA,2025-08-05T13:26:43.314100,,,,,
UKMCZ0084,Markham's Triangle,MCZ - Secretary of State,England offshore,Southern North Sea,20010.4151655878,2.7350957147,53.9425545344999,20-05-2019,JNCC,555691638.0,UKOffshoreMPAs.xlsx,Offshore MPA,2025-08-05T13:26:43.314100,,,,,
UKMCZ0024,North East of Farnes Deep,MCZ - Secretary of State,England offshore,Northern North Sea,49200.0,-0.6137982206,55.7570319507,21-11-2013,JNCC,555583028.0,UKOffshoreMPAs.xlsx,Offshore MPA,2025-08-05T13:26:43.314100,,,,,
UKNCMPA025,North-east Faroe-Shetland Channel,NCMPA,Scotland offshore,Atlantic North-West Approaches & Scottish Continental Shelf,2368200.0,-0.8625,62.5986111,23-07-2014,JNCC,555583056.0,UKOffshoreMPAs.xlsx,Offshore MPA,2025-08-05T13:26:43.314100,,,,,
UKMCZ0085,North-East of Haig Fras,MCZ - Secretary of State,England offshore,Western Channel and Celtic Sea,46375.2179266282,-7.0228798968,50.7498910178999,20-05-2019,JNCC,555691639.0,UKOffshoreMPAs.xlsx,Offshore MPA,2025-08-05T13:26:43.314100,,,,,
UKMCZ0048,North-West of Jones Bank,MCZ - Secretary of State,England offshore,Western Channel and Celtic Sea,39781.07,-8.193558,49.915078,12-01-2016,JNCC,555593954.0,UKOffshoreMPAs.xlsx,Offshore MPA,2025-08-05T13:26:43.314100,,,,,
UKNCMPA019,North-west Orkney,NCMPA,Scotland inshore & Scotland offshore,Scottish Continental Shelf,436500.0,-3.1488889,59.515,23-07-2014,JNCC,555583050.0,UKOffshoreMPAs.xlsx,Offshore MPA,2025-08-05T13:26:43.314100,,,,,
UKNCMPA026,Norwegian Boundary Sediment Plain,NCMPA,Scotland offshore,Northern North Sea,16400.0,1.7280556,58.0758333,23-07-2014,JNCC,555583057.0,UKOffshoreMPAs.xlsx,Offshore MPA,2025-08-05T13:26:43.314100,,,,,
UKMCZ0049,Offshore Brighton,MCZ - Secretary of State,England offshore,Eastern Channel,86164.66,-0.591723,50.263387,12-01-2016,JNCC,555622030.0,UKOffshoreMPAs.xlsx,Offshore MPA,2025-08-05T13:26:43.314100,,,,,
UKMCZ0044,Offshore Overfalls,MCZ - Secretary of State,England inshore & England offshore,Eastern Channel,59458.17,-0.722124,50.494501,12-01-2016,JNCC and NE,555622031.0,UKOffshoreMPAs.xlsx,Offshore MPA,2025-08-05T13:26:43.314100,,,,,
UKMCZ0081,Orford Inshore,MCZ - Secretary of State,England inshore & England offshore,Southern North Sea,7201.7105028892,1.8840889529,52.0931919936,20-05-2019,JNCC and NE,555691673.0,UKOffshoreMPAs.xlsx,Offshore MPA,2025-08-05T13:26:43.314100,,,,,
UKMCZ0086,Queenie Corner,MCZ - Secretary of State,Northern Ireland offshore,Irish Sea,14591.7071307635,-5.2192106256,53.8252925146,20-05-2019,JNCC,555691640.0,UKOffshoreMPAs.xlsx,Offshore MPA,2025-08-05T13:26:43.314100,,,,,
UKMCZ0022,South Dorset,MCZ - Secretary of State,England inshore & England offshore,Eastern Channel,19264.34371,-2.2138888889,50.3863888889,21-11-2013,JNCC and NE,555583026.0,UKOffshoreMPAs.xlsx,Offshore MPA,2025-08-05T13:26:43.314100,,,,,
UKMCZ0087,South of Celtic Deep,MCZ - Secretary of State,England offshore,Western Channel and Celtic Sea,27818.8598528978,-6.5941413751,50.9034481978,20-05-2019,JNCC,555691641.0,UKOffshoreMPAs.xlsx,Offshore MPA,2025-08-05T13:26:43.314100,,,,,
UKMCZ0082,South of the Isles of Scilly,MCZ - Secretary of State,England inshore & England offshore,Western Channel and Celtic Sea,13219.1760095572,-6.2122050847,49.6901672495,20-05-2019,JNCC and NE,555691636.0,UKOffshoreMPAs.xlsx,Offshore MPA,2025-08-05T13:26:43.314100,,,,,
UKMCZ0088,South Rigg,MCZ - Secretary of State,Northern Ireland offshore,Irish Sea,14108.2577067015,-5.0014891886,54.385058485,20-05-2019,JNCC,555691642.0,UKOffshoreMPAs.xlsx,Offshore MPA,2025-08-05T13:26:43.314100,,,,,
UKMCZ0083,South West Approaches to the Bristol Channel,MCZ - Secretary of State,England inshore & England offshore,Western Channel and Celtic Sea,112807.492662173,-5.2714488089,50.7686465035,20-05-2019,JNCC and NE,555691637.0,UKOffshoreMPAs.xlsx,Offshore MPA,2025-08-05T13:26:43.314100,,,,,
UKMCZ0089,South West Deeps (East),MCZ - Secretary of State,England offshore,Western Channel and Celtic Sea,465505.511148608,-8.76567100099999,48.8565645301,20-05-2019,JNCC,555691643.0,UKOffshoreMPAs.xlsx,Offshore MPA,2025-08-05T13:26:43.314100,,,,,
UKMCZ0025,South-West Deeps (West),MCZ - Secretary of State,England offshore,Western Channel and Celtic Sea,182400.0,-9.034761208,49.1551717809,21-11-2013,JNCC,555559211.0,UKOffshoreMPAs.xlsx,Offshore MPA,2025-08-05T13:26:43.314100,,,,,
UKMCZ0026,Swallow Sand,MCZ - Secretary of State,England offshore,Northern North Sea,474600.0,0.6611735792,55.7502425068,21-11-2013,JNCC,555583030.0,UKOffshoreMPAs.xlsx,Offshore MPA,2025-08-05T13:26:43.314100,,,,,
UKNCMPA028,The Barra Fan and Hebrides Terrace Seamount,NCMPA,Scotland offshore,Atlantic North-West Approaches & Scottish Continental Shelf,437300.0,-9.6966667,56.5813889,23-07-2014,JNCC,555583059.0,UKOffshoreMPAs.xlsx,Offshore MPA,2025-08-05T13:26:43.314100,,,,,
UKMCZ0027,The Canyons,MCZ - Secretary of State,England offshore,Western Channel and Celtic Sea,66100.0,-9.6797863087,48.3333896952,21-11-2013,JNCC,555583031.0,UKOffshoreMPAs.xlsx,Offshore MPA,2025-08-05T13:26:43.314100,,,,,
UKNCMPA029,Turbot Bank,NCMPA,Scotland offshore,Northern North Sea,25100.0,-0.8825,57.39,23-07-2014,JNCC,555583060.0,UKOffshoreMPAs.xlsx,Offshore MPA,2025-08-05T13:26:43.314100,,,,,
UKMCZ0090,West of Copeland,MCZ - Secretary of State,England offshore,Irish Sea,15774.1486337571,-3.8692091019,54.1891796287,20-05-2019,JNCC,555691644.0,UKOffshoreMPAs.xlsx,Offshore MPA,2025-08-05T13:26:43.314100,,,,,
UKMPA0001,West of Scotland ,MPA,Scotland offshore,Atlantic North-West Approaches & Scottish Continental Shelf,10771800.0,-11.187777,58.595647,25-09-2020,JNCC,555703191.0,UKOffshoreMPAs.xlsx,Offshore MPA,2025-08-05T13:26:43.314100,,,,,
UKMCZ0045,West of Walney,MCZ - Secretary of State,England inshore & England offshore,Irish Sea,38776.84945,-3.5354892402,54.0715000795,12-01-2016,JNCC and NE,555622037.0,UKOffshoreMPAs.xlsx,Offshore MPA,2025-08-05T13:26:43.314100,,,,,
UKMCZ0091,West of Wight-Barfleur,MCZ - Secretary of State,England offshore,Eastern Channel,13760.262997247,-2.1543278426,50.1772977422999,20-05-2019,JNCC,555691645.0,UKOffshoreMPAs.xlsx,Offshore MPA,2025-08-05T13:26:43.314100,,,,,
UKNCMPA030,West Shetland Shelf,NCMPA,Scotland offshore,Scottish Continental Shelf,408300.0,-4.9180556,59.5413889,23-07-2014,JNCC,555583061.0,UKOffshoreMPAs.xlsx,Offshore MPA,2025-08-05T13:26:43.314100,,,,,
UKMCZ0050,Western Channel,MCZ - Secretary of State,England offshore,Western Channel and Celtic Sea,161351.21759,-4.807144,49.418553,12-01-2016,JNCC,555622038.0,UKOffshoreMPAs.xlsx,Offshore MPA,2025-08-05T13:26:43.314100,,,,,
UKEHPMA002,Dolphin Head,HPMA (MCZ),England offshore,Eastern Channel,46580.0,-0.664222,50.18714,2023-06-14 00:00:00,JNCC,555785806.0,UKOffshoreMPAs.xlsx,Offshore MPA,2025-08-05T13:26:43.314100,,,,,
UK9003091,Ailsa Craig,SPA,Scotland inshore,Irish Sea,2759.53,-5.115833333,55.2525,1990-04-01 00:00:00,NatureScot,555556911.0,UKSPAswithMarineComponents-20220316-LIVE-WEB.xlsx,Special Protection Area,2025-08-05T13:26:43.338078,,No,,,
UK9009112,Alde-Ore Estuary,SPA,England inshore,Southern North Sea,2403.5,1.5508,52.0828,1996-10-01 00:00:00,NE,127889.0,UKSPAswithMarineComponents-20220316-LIVE-WEB.xlsx,Special Protection Area,2025-08-05T13:26:43.338078,,No,,,
UK9013061,Anglesey Terns / Morwenoliaid Ynys Môn,SPA,Wales inshore,Irish Sea,101931.08,-4.601,53.447,1992-06-01 00:00:00,NRW,555786241.0,UKSPAswithMarineComponents-20220316-LIVE-WEB.xlsx,Special Protection Area,2025-08-05T13:26:43.338078,,No,,,
UK9014091,Bae Caerfyrddin/ Carmarthen Bay,SPA,Wales inshore,Western Channel and Celtic Sea,33450.26,-4.4864,51.6467,2003-06-01 00:00:00,NRW,555786254.0,UKSPAswithMarineComponents-20220316-LIVE-WEB.xlsx,Special Protection Area,2025-08-05T13:26:43.338078,,No,,,
UK9020101,Belfast Lough,SPA,Northern Ireland inshore,Irish Sea,428.64,-5.9,54.6333,1998-08-01 00:00:00,DAERA,220045.0,UKSPAswithMarineComponents-20220316-LIVE-WEB.xlsx,Special Protection Area,2025-08-05T13:26:43.338078,,No,,,
UK9020290,Belfast Lough Open Water,SPA,Northern Ireland inshore,Irish Sea,5591.73,-5.816666667,54.68333333,2009-09-01 00:00:00,DAERA,555556928.0,UKSPAswithMarineComponents-20220316-LIVE-WEB.xlsx,Special Protection Area,2025-08-05T13:26:43.338078,,No,,,
UK9009171,Benfleet and Southend Marshes,SPA,England inshore,Southern North Sea,2283.94,0.683333333,51.52833333,1994-02-01 00:00:00,NE,555556932.0,UKSPAswithMarineComponents-20220316-LIVE-WEB.xlsx,Special Protection Area,2025-08-05T13:26:43.338078,,No,,,
UK9009245,Blackwater Estuary (Mid-Essex Coast Phase 4),SPA,England inshore,Southern North Sea,4403.38,0.866388889,51.75361111,1995-05-01 00:00:00,NE,555556935.0,UKSPAswithMarineComponents-20220316-LIVE-WEB.xlsx,Special Protection Area,2025-08-05T13:26:43.338078,,Yes,,,
UK9020312,Bluemull and Colgrave Sounds,SPA,Scotland inshore,Northern North Sea,3823.27,-1.000729,60.627,2020-12-03 00:00:00,NatureScot,555787426.0,UKSPAswithMarineComponents-20220316-LIVE-WEB.xlsx,Special Protection Area,2025-08-05T13:26:43.338078,,No,,,
UK9009181,Breydon Water,SPA,England inshore,Southern North Sea,1203.05,1.621666667,52.58416667,1996-03-01 00:00:00,NE,127890.0,UKSPAswithMarineComponents-20220316-LIVE-WEB.xlsx,Special Protection Area,2025-08-05T13:26:43.338078,,Yes,,,
UK9002491,Buchan Ness to Collieston Coast,SPA,Scotland inshore,Northern North Sea,5400.76,-1.835,57.40083333,1998-03-01 00:00:00,NatureScot,555556942.0,UKSPAswithMarineComponents-20220316-LIVE-WEB.xlsx,Special Protection Area,2025-08-05T13:26:43.338078,,No,,,
UK9015011,Burry Inlet,SPA,Wales inshore,Western Channel and Celtic Sea,6672.95,-4.176944444,51.64861111,1992-07-01 00:00:00,NRW,68296.0,UKSPAswithMarineComponents-20220316-LIVE-WEB.xlsx,Special Protection Area,2025-08-05T13:26:43.338078,,No,,,
UK9002431,Calf of Eday,SPA,Scotland inshore,Scottish Continental Shelf,2671.77,-2.724166667,59.24361111,1998-06-01 00:00:00,NatureScot,555556944.0,UKSPAswithMarineComponents-20220316-LIVE-WEB.xlsx,Special Protection Area,2025-08-05T13:26:43.338078,,No,,,
UK9001431,Canna and Sanday,SPA,Scotland inshore,Minches and Western Scotland,6567.58,-6.541944444,57.05416667,1998-02-01 00:00:00,NatureScot,555556945.0,UKSPAswithMarineComponents-20220316-LIVE-WEB.xlsx,Special Protection Area,2025-08-05T13:26:43.338078,,No,,,
UK9001231,Cape Wrath,SPA,Scotland inshore,Minches and Western Scotland & Scottish Continental Shelf,6734.48,-4.942222222,58.61361111,1996-03-01 00:00:00,NatureScot,555556946.0,UKSPAswithMarineComponents-20220316-LIVE-WEB.xlsx,Special Protection Area,2025-08-05T13:26:43.338078,,No,,,
UK9020161,Carlingford Lough,SPA,Northern Ireland inshore,Irish Sea,826.91,-6.12,54.05111111,1998-03-01 00:00:00,DAERA,220048.0,UKSPAswithMarineComponents-20220316-LIVE-WEB.xlsx,Special Protection Area,2025-08-05T13:26:43.338078,,No,,,
UK9010091,Chesil Beach and The Fleet,SPA,England inshore,Eastern Channel,747.37,-2.539,50.619,1985-07-01 00:00:00,NE,555556951.0,UKSPAswithMarineComponents-20220316-LIVE-WEB.xlsx,Special Protection Area,2025-08-05T13:26:43.338078,,No,,,
UK9011011,Chichester and Langstone Harbours,SPA,England inshore,Eastern Channel,5810.95,-0.92,50.80638889,1987-10-01 00:00:00,NE,68274.0,UKSPAswithMarineComponents-20220316-LIVE-WEB.xlsx,Special Protection Area,2025-08-05T13:26:43.338078,,No,,,
UK9020310,Coll and Tiree,SPA,Scotland inshore,Minches and Western Scotland,79475.15,-6.769511,56.599,2020-12-03 00:00:00,NatureScot,555786375.0,UKSPAswithMarineComponents-20220316-LIVE-WEB.xlsx,Special Protection Area,2025-08-05T13:26:43.338078,,No,,,
UK9009243,Colne Estuary (Mid-Essex Coast Phase 2),SPA,England inshore,Southern North Sea,2719.93,0.96,51.81583333,1994-07-01 00:00:00,NE,555556953.0,UKSPAswithMarineComponents-20220316-LIVE-WEB.xlsx,Special Protection Area,2025-08-05T13:26:43.338078,,Yes,,,
UK9002151,Copinsay,SPA,Scotland inshore,Scottish Continental Shelf,3607.7,-2.684722222,58.89777778,1994-03-01 00:00:00,NatureScot,555581012.0,UKSPAswithMarineComponents-20220316-LIVE-WEB.xlsx,Special Protection Area,2025-08-05T13:26:43.338078,,No,,,
UK9006031,Coquet Island,SPA,England inshore,Northern North Sea,19.78,-1.5372,55.335,1985-07-01 00:00:00,NE,555637373.0,UKSPAswithMarineComponents-20220316-LIVE-WEB.xlsx,Special Protection Area,2025-08-05T13:26:43.338078,,No,,,
UK9001623,Cromarty Firth,SPA,Scotland inshore,Northern North Sea,3247.96,-4.082,57.723,1999-03-01 00:00:00,NatureScot,220049.0,UKSPAswithMarineComponents-20220316-LIVE-WEB.xlsx,Special Protection Area,2025-08-05T13:26:43.338078,,Yes,,,
UK9009244,Crouch and Roach Estuaries (Mid-Essex Coast Phase 3),SPA,England inshore,Southern North Sea,1847.87,0.687,51.634,1998-06-01 00:00:00,NE,555556961.0,UKSPAswithMarineComponents-20220316-LIVE-WEB.xlsx,Special Protection Area,2025-08-05T13:26:43.338078,,No,,,
UK9009261,Deben Estuary,SPA,England inshore,Southern North Sea,981.08,1.345555556,52.04194444,1996-03-01 00:00:00,NE,127891.0,UKSPAswithMarineComponents-20220316-LIVE-WEB.xlsx,Special Protection Area,2025-08-05T13:26:43.338078,,No,,,
UK9009242,Dengie (Mid-Essex Coast Phase 1),SPA,England inshore,Southern North Sea,3133.94,0.959444444,51.69055556,1994-03-01 00:00:00,NE,555556967.0,UKSPAswithMarineComponents-20220316-LIVE-WEB.xlsx,Special Protection Area,2025-08-05T13:26:43.338078,,No,,,
UK9001622,Dornoch Firth and Loch Fleet,SPA,Scotland inshore,Northern North Sea,6513.27,-4.116,57.836,1997-03-01 00:00:00,NatureScot,166871.0,UKSPAswithMarineComponents-20220316-LIVE-WEB.xlsx,Special Protection Area,2025-08-05T13:26:43.338078,,No,,,
UK9012091,"Dungeness, Romney Marsh and Rye Bay",SPA,England inshore,Eastern Channel,42417.53,0.835,50.891,1999-08-01 00:00:00,NE,555637374.0,UKSPAswithMarineComponents-20220316-LIVE-WEB.xlsx,Special Protection Area,2025-08-05T13:26:43.338078,,Yes,,,
UK9020284,Dyfi Estuary / Aber Dyfi,SPA,Wales inshore,Irish Sea,2056.5,-3.9844,52.5447,2001-06-01 00:00:00,NRW,555637375.0,UKSPAswithMarineComponents-20220316-LIVE-WEB.xlsx,Special Protection Area,2025-08-05T13:26:43.338078,,No,,,
UK9001182,East Caithness Cliffs,SPA,Scotland inshore,Northern North Sea,11696.38,-3.363,58.264,1996-03-01 00:00:00,NatureScot,555583033.0,UKSPAswithMarineComponents-20220316-LIVE-WEB.xlsx,Special Protection Area,2025-08-05T13:26:43.338078,,Yes,,,
UK9020311,East Mainland Coast Shetland,SPA,Scotland inshore,Northern North Sea,23333.23,-1.151551,60.21912,2020-12-03 00:00:00,NatureScot,18953.0,UKSPAswithMarineComponents-20220316-LIVE-WEB.xlsx,Special Protection Area,2025-08-05T13:26:43.338078,,No,,,
UK9002331,East Sanday Coast,SPA,Scotland inshore,Scottish Continental Shelf,1508.2,-2.492,59.26,1997-08-01 00:00:00,NatureScot,220057.0,UKSPAswithMarineComponents-20220316-LIVE-WEB.xlsx,Special Protection Area,2025-08-05T13:26:43.338078,,No,,,
UK9010081,Exe Estuary,SPA,England inshore,Eastern Channel,2366.84,-3.442222222,50.64722222,1992-03-01 00:00:00,NE,68293.0,UKSPAswithMarineComponents-20220316-LIVE-WEB.xlsx,Special Protection Area,2025-08-05T13:26:43.338078,,No,,,
UK9002091,Fair Isle,SPA,Scotland inshore,Scottish Continental Shelf,6825.1,-1.628055556,59.53111111,1994-12-01 00:00:00,NatureScot,555556987.0,UKSPAswithMarineComponents-20220316-LIVE-WEB.xlsx,Special Protection Area,2025-08-05T13:26:43.338078,,Yes,,,
UK9020323,Falmouth Bay to St Austell Bay,SPA,England inshore,Western Channel and Celtic Sea,25898.62,-4.865,50.204,2017-10-01 00:00:00,NE,555637376.0,UKSPAswithMarineComponents-20220316-LIVE-WEB.xlsx,Special Protection Area,2025-08-05T13:26:43.338078,,No,,,
UK9006021,Farne Islands,SPA,England inshore,Northern North Sea,101.23,-1.6486,55.6203,1985-07-01 00:00:00,NE,555581319.0,UKSPAswithMarineComponents-20220316-LIVE-WEB.xlsx,Special Protection Area,2025-08-05T13:26:43.338078,,No,,,
UK9002031,Fetlar,SPA,Scotland inshore,Northern North Sea,16964.69,-0.855555556,60.60388889,1994-03-01 00:00:00,NatureScot,555556992.0,UKSPAswithMarineComponents-20220316-LIVE-WEB.xlsx,Special Protection Area,2025-08-05T13:26:43.338078,,Yes,,,
UK9004411,Firth of Forth,SPA,Scotland inshore,Northern North Sea,6317.93,-2.651,56.058,2001-10-01 00:00:00,NatureScot,900634.0,UKSPAswithMarineComponents-20220316-LIVE-WEB.xlsx,Special Protection Area,2025-08-05T13:26:43.338078,,Yes,,,
UK9006101,Flamborough and Filey Coast,SPA,England inshore,Northern North Sea & Southern North Sea,7857.99,-0.1792,54.1658,1993-03-01 00:00:00,NE,555786385.0,UKSPAswithMarineComponents-20220316-LIVE-WEB.xlsx,Special Protection Area,2025-08-05T13:26:43.338078,,No,,,
UK9001021,Flannan Isles,SPA,Scotland inshore,Scottish Continental Shelf,5832.82,-7.607222222,58.28083333,1992-08-01 00:00:00,NatureScot,555556999.0,UKSPAswithMarineComponents-20220316-LIVE-WEB.xlsx,Special Protection Area,2025-08-05T13:26:43.338078,,Yes,,,
UK9004171,Forth Islands,SPA,Scotland inshore,Northern North Sea,9797.01,-2.564,56.186,1990-04-01 00:00:00,NatureScot,555557001.0,UKSPAswithMarineComponents-20220316-LIVE-WEB.xlsx,Special Protection Area,2025-08-05T13:26:43.338078,,No,,,
UK9002061,Foula,SPA,Scotland inshore,Scottish Continental Shelf,7985.49,-2.078611111,60.13416667,1995-11-01 00:00:00,NatureScot,555557002.0,UKSPAswithMarineComponents-20220316-LIVE-WEB.xlsx,Special Protection Area,2025-08-05T13:26:43.338078,,No,,,
UK9009246,Foulness (Mid-Essex Coast Phase 5),SPA,England inshore,Southern North Sea,10940.64,0.921388889,51.57388889,1996-10-01 00:00:00,NE,555557003.0,UKSPAswithMarineComponents-20220316-LIVE-WEB.xlsx,Special Protection Area,2025-08-05T13:26:43.338078,,No,,,
UK9002271,Fowlsheugh,SPA,Scotland inshore,Northern North Sea,1303.23,-2.182222222,56.91666667,1992-08-01 00:00:00,NatureScot,555581016.0,UKSPAswithMarineComponents-20220316-LIVE-WEB.xlsx,Special Protection Area,2025-08-05T13:26:43.338078,,No,,,
UK9008022,Gibraltar Point,SPA,England inshore,Southern North Sea,422.2,0.3378,53.1,1993-03-01 00:00:00,NE,134955.0,UKSPAswithMarineComponents-20220316-LIVE-WEB.xlsx,Special Protection Area,2025-08-05T13:26:43.338078,,No,,,
UK9013121,Glannau Aberdaron ac Ynys Enlli/ Aberdaron Coast and Bardsey Island,SPA,Wales inshore,Irish Sea,33942.42,-4.789,52.7559,1992-06-01 00:00:00,NRW,555786248.0,UKSPAswithMarineComponents-20220316-LIVE-WEB.xlsx,Special Protection Area,2025-08-05T13:26:43.338078,,No,,,
UK9014041,Grassholm,SPA,Wales inshore,Western Channel and Celtic Sea,1774.42,-5.4798,51.7311,1986-01-01 00:00:00,NRW,555580934.0,UKSPAswithMarineComponents-20220316-LIVE-WEB.xlsx,Special Protection Area,2025-08-05T13:26:43.338078,,No,,,
UK9020329,Greater Wash,SPA,England inshore & England offshore,Southern North Sea,353577.86,0.7264,53.2356,2018-03-01 00:00:00,JNCC and NE,555637378.0,UKSPAswithMarineComponents-20220316-LIVE-WEB.xlsx,Special Protection Area,2025-08-05T13:26:43.338078,,No,,,
UK9003051,"Gruinart Flats, Islay",SPA,Scotland inshore,Minches and Western Scotland,3262.13,-6.327,55.847,1988-07-01 00:00:00,NatureScot,68278.0,UKSPAswithMarineComponents-20220316-LIVE-WEB.xlsx,Special Protection Area,2025-08-05T13:26:43.338078,,No,,,
UK9009131,Hamford Water,SPA,England inshore,Southern North Sea,3532.55,1.2877,51.8794,1993-06-01 00:00:00,NE,68303.0,UKSPAswithMarineComponents-20220316-LIVE-WEB.xlsx,Special Protection Area,2025-08-05T13:26:43.338078,,No,,,
UK9001241,Handa,SPA,Scotland inshore,Minches and Western Scotland,3205.61,-5.2025,58.38194444,1990-04-01 00:00:00,NatureScot,555557016.0,UKSPAswithMarineComponents-20220316-LIVE-WEB.xlsx,Special Protection Area,2025-08-05T13:26:43.338078,,Yes,,,
UK9002011,"Hermaness, Saxa Vord and Valla Field",SPA,Scotland inshore,Northern North Sea & Scottish Continental Shelf,6832.36,-0.901388889,60.82833333,1994-03-01 00:00:00,NatureScot,555557021.0,UKSPAswithMarineComponents-20220316-LIVE-WEB.xlsx,Special Protection Area,2025-08-05T13:26:43.338078,,No,,,
UK9002141,Hoy,SPA,Scotland inshore,Scottish Continental Shelf,18123.91,-3.343055556,58.85861111,2000-12-01 00:00:00,NatureScot,555557028.0,UKSPAswithMarineComponents-20220316-LIVE-WEB.xlsx,Special Protection Area,2025-08-05T13:26:43.338078,,No,,,
UK9003061,Inner Clyde Estuary,SPA,Scotland inshore,Irish Sea,1813.72,-4.633333333,55.94722222,2000-03-01 00:00:00,NatureScot,220094.0,UKSPAswithMarineComponents-20220316-LIVE-WEB.xlsx,Special Protection Area,2025-08-05T13:26:43.338078,,No,,,
UK9001624,Inner Moray Firth,SPA,Scotland inshore,Northern North Sea,2290.25,-4.358,57.484,1999-03-01 00:00:00,NatureScot,220061.0,UKSPAswithMarineComponents-20220316-LIVE-WEB.xlsx,Special Protection Area,2025-08-05T13:26:43.338078,,No,,,
UK9020328,Irish Sea Front,SPA,Wales offshore,Irish Sea,18000.0,-5.061,53.702,2017-10-01 00:00:00,JNCC,555637379.0,UKSPAswithMarineComponents-20220316-LIVE-WEB.xlsx,Special Protection Area,2025-08-05T13:26:43.338078,,No,,,
UK9020288,Isles of Scilly ,SPA,England inshore,Western Channel and Celtic sea,13332.68,-6.347065,49.921558,2001-08-01 00:00:00,NE,555583012.0,UKSPAswithMarineComponents-20220316-LIVE-WEB.xlsx,Special Protection Area,2025-08-05T13:26:43.338078,,No,,,
UK9020221,Killough Bay,SPA,Northern Ireland inshore,Irish Sea,132.71,-5.6306,54.2558,2003-03-01 00:00:00,DAERA,555557046.0,UKSPAswithMarineComponents-20220316-LIVE-WEB.xlsx,Special Protection Area,2025-08-05T13:26:43.338078,,No,,,
UK9020042,Larne Lough,SPA,Northern Ireland inshore,Irish Sea,391.48,-5.7439,54.8064,1997-03-01 00:00:00,DAERA,166872.0,UKSPAswithMarineComponents-20220316-LIVE-WEB.xlsx,Special Protection Area,2025-08-05T13:26:43.338078,,No,,,
UK9006011,Lindisfarne,SPA,England inshore,Northern North Sea,3671.03,-1.8381,55.6728,1992-03-01 00:00:00,NE,68247.0,UKSPAswithMarineComponents-20220316-LIVE-WEB.xlsx,Special Protection Area,2025-08-05T13:26:43.338078,,Yes,,,
UK9020294,Liverpool Bay / Bae Lerpwl,SPA,England inshore & England offshore & Wales inshore,Irish Sea,252757.73,-3.422,53.61,2010-08-01 00:00:00,JNCC and NE and NRW,555557063.0,UKSPAswithMarineComponents-20220316-LIVE-WEB.xlsx,Special Protection Area,2025-08-05T13:26:43.338078,,Yes,,,
UK9020031,Lough Foyle,SPA,Northern Ireland inshore,Minches and Western Scotland,2194.22,-7.0269,55.09,1999-01-01 00:00:00,DAERA,220065.0,UKSPAswithMarineComponents-20220316-LIVE-WEB.xlsx,Special Protection Area,2025-08-05T13:26:43.338078,,Yes,,,
UK9002121,Marwick Head,SPA,Scotland inshore,Scottish Continental Shelf,475.54,-3.3575,59.10833333,1994-12-01 00:00:00,NatureScot,555557081.0,UKSPAswithMarineComponents-20220316-LIVE-WEB.xlsx,Special Protection Area,2025-08-05T13:26:43.338078,,No,,,
UK9012031,Medway Estuary and Marshes,SPA,England inshore,Southern North Sea,4686.32,0.677222222,51.40055556,1993-12-01 00:00:00,NE,555557083.0,UKSPAswithMarineComponents-20220316-LIVE-WEB.xlsx,Special Protection Area,2025-08-05T13:26:43.338078,,Yes,,,
UK9005131,Mersey Estuary,SPA,England inshore,Irish Sea,5023.35,-2.823611111,53.31416667,1995-12-01 00:00:00,NE,134954.0,UKSPAswithMarineComponents-20220316-LIVE-WEB.xlsx,Special Protection Area,2025-08-05T13:26:43.338078,,Yes,,,
UK9020287,Mersey Narrows and North Wirral Foreshore,SPA,England inshore,Irish Sea,2078.36,-3.1816,53.4155,2013-07-01 00:00:00,NE,555583062.0,UKSPAswithMarineComponents-20220316-LIVE-WEB.xlsx,Special Protection Area,2025-08-05T13:26:43.338078,,No,,,
UK9001121,Mingulay and Berneray,SPA,Scotland inshore,Minches and Western Scotland & Scottish Continental Shelf,7801.71,-7.638888889,56.80416667,1994-12-01 00:00:00,NatureScot,555557086.0,UKSPAswithMarineComponents-20220316-LIVE-WEB.xlsx,Special Protection Area,2025-08-05T13:26:43.338078,,No,,,
UK9009101,Minsmere-Walberswick,SPA,England inshore,Southern North Sea,2019.11,1.633888889,52.31527778,1992-05-01 00:00:00,NE,555637381.0,UKSPAswithMarineComponents-20220316-LIVE-WEB.xlsx,Special Protection Area,2025-08-05T13:26:43.338078,,Yes,,,
UK9004031,Montrose Basin,SPA,Scotland inshore,Northern North Sea,981.19,-2.502,56.711,1995-02-01 00:00:00,NatureScot,95296.0,UKSPAswithMarineComponents-20220316-LIVE-WEB.xlsx,Special Protection Area,2025-08-05T13:26:43.338078,,No,,,
UK9001625,Moray and Nairn Coast,SPA,Scotland inshore,Northern North Sea,2325.67,-3.677,57.661,1997-02-01 00:00:00,NatureScot,166875.0,UKSPAswithMarineComponents-20220316-LIVE-WEB.xlsx,Special Protection Area,2025-08-05T13:26:43.338078,,No,,,
UK9020326,Morecambe Bay and Duddon Estuary,SPA,England inshore,Irish Sea,66899.0,-2.9475,54.1097,2017-02-01 00:00:00,NE,555624875.0,UKSPAswithMarineComponents-20220316-LIVE-WEB.xlsx,Special Protection Area,2025-08-05T13:26:43.338078,,No,,,
UK9001181,North Caithness Cliffs,SPA,Scotland inshore,Northern North Sea & Scottish Continental Shelf,14628.79,-3.339,58.666,1996-08-01 00:00:00,NatureScot,555557104.0,UKSPAswithMarineComponents-20220316-LIVE-WEB.xlsx,Special Protection Area,2025-08-05T13:26:43.338078,,No,,,
UK9003171,North Colonsay and Western Cliffs,SPA,Scotland inshore,Minches and Western Scotland,3297.3,-6.177777778,56.11222222,1997-03-01 00:00:00,NatureScot,555557105.0,UKSPAswithMarineComponents-20220316-LIVE-WEB.xlsx,Special Protection Area,2025-08-05T13:26:43.338078,,No,,,
UK9020314,North Orkney,SPA,Scotland inshore,Scottish Continental Shelf,21173.17,-2.938558,59.079512,2022-02-16 00:00:00,NatureScot,999900001.0,UKSPAswithMarineComponents-20220316-LIVE-WEB.xlsx,Special Protection Area,2025-08-05T13:26:43.338078,,No,,,
UK9001011,North Rona and Sula Sgeir,SPA,Scotland inshore,Scottish Continental Shelf,6850.58,-5.971111111,59.11083333,2001-10-01 00:00:00,NatureScot,555557109.0,UKSPAswithMarineComponents-20220316-LIVE-WEB.xlsx,Special Protection Area,2025-08-05T13:26:43.338078,,No,,,
UK9001051,North Uist Machair and Islands,SPA,Scotland inshore,Minches and Western Scotland & Scottish Continental Shelf,4873.53,-7.366,57.524,1999-03-01 00:00:00,NatureScot,220072.0,UKSPAswithMarineComponents-20220316-LIVE-WEB.xlsx,Special Protection Area,2025-08-05T13:26:43.338078,,Yes,,,
UK9020327,Northern Cardigan Bay / Gogledd Bae Ceredigion,SPA,Wales inshore,Irish Sea,82312.9,-4.2481,52.6521,2017-01-01 00:00:00,NRW,555624863.0,UKSPAswithMarineComponents-20220316-LIVE-WEB.xlsx,Special Protection Area,2025-08-05T13:26:43.338078,,No,,,
UK9020325,Northumberland Marine,SPA,England inshore,Northern North Sea,88498.0,-1.5572,55.4961,2017-01-01 00:00:00,NE,555624873.0,UKSPAswithMarineComponents-20220316-LIVE-WEB.xlsx,Special Protection Area,2025-08-05T13:26:43.338078,,No,,,
UK9006131,Northumbria Coast,SPA,England inshore,Northern North Sea,1097.45,-1.5883,55.4661,2000-02-01 00:00:00,NE,220073.0,UKSPAswithMarineComponents-20220316-LIVE-WEB.xlsx,Special Protection Area,2025-08-05T13:26:43.338078,,No,,,
UK9002081,Noss,SPA,Scotland inshore,Northern North Sea,3338.38,-1.012222222,60.14166667,1996-08-01 00:00:00,NatureScot,555557113.0,UKSPAswithMarineComponents-20220316-LIVE-WEB.xlsx,Special Protection Area,2025-08-05T13:26:43.338078,,No,,,
UK9020271,Outer Ards,SPA,Northern Ireland inshore,Irish Sea,1394.8,-5.4839,54.5464,2002-12-01 00:00:00,DAERA,555557114.0,UKSPAswithMarineComponents-20220316-LIVE-WEB.xlsx,Special Protection Area,2025-08-05T13:26:43.338078,,Yes,,,
UK9020316,Outer Firth of Forth and St Andrews Bay Complex,SPA,Scotland inshore & Scotland offshore,Northern North Sea,272068.09,-2.742096,56.136,2020-12-03 00:00:00,JNCC and NatureScot,555787496.0,UKSPAswithMarineComponents-20220316-LIVE-WEB.xlsx,Special Protection Area,2025-08-05T13:26:43.338078,,No,,,
UK9020309,Outer Thames Estuary,SPA,England inshore & England offshore,Southern North Sea,392451.66,1.545,51.916,2010-08-01 00:00:00,JNCC and NE,555557115.0,UKSPAswithMarineComponents-20220316-LIVE-WEB.xlsx,Special Protection Area,2025-08-05T13:26:43.338078,,No,,,
UK9012041,Pagham Harbour,SPA,England inshore,Eastern Channel,629.01,-0.760555556,50.76333333,1988-03-01 00:00:00,NE,68277.0,UKSPAswithMarineComponents-20220316-LIVE-WEB.xlsx,Special Protection Area,2025-08-05T13:26:43.338078,,No,,,
UK9010111,Poole Harbour,SPA,England inshore,Eastern Channel,4157.52,-2.004,50.699,1999-03-01 00:00:00,NE,220076.0,UKSPAswithMarineComponents-20220316-LIVE-WEB.xlsx,Special Protection Area,2025-08-05T13:26:43.338078,,No,,,
UK9011051,Portsmouth Harbour,SPA,England inshore,Eastern Channel,1249.6,-1.125555556,50.82805556,1995-02-01 00:00:00,NE,95298.0,UKSPAswithMarineComponents-20220316-LIVE-WEB.xlsx,Special Protection Area,2025-08-05T13:26:43.338078,,No,,,
UK9005103,Ribble and Alt Estuaries,SPA,England inshore,Irish Sea,12449.92,-2.987222222,53.70555556,1995-02-01 00:00:00,NE,555557138.0,UKSPAswithMarineComponents-20220316-LIVE-WEB.xlsx,Special Protection Area,2025-08-05T13:26:43.338078,,Yes,,,
UK9002371,Rousay,SPA,Scotland inshore,Scottish Continental Shelf,5480.84,-3.0525,59.18722222,2000-02-01 00:00:00,NatureScot,555557143.0,UKSPAswithMarineComponents-20220316-LIVE-WEB.xlsx,Special Protection Area,2025-08-05T13:26:43.338078,,No,,,
UK9020321,Scapa Flow,SPA,Scotland inshore,Scottish Continental Shelf,31819.88,-3.134343,58.876969,2022-02-16 00:00:00,NatureScot,999900002.0,UKSPAswithMarineComponents-20220316-LIVE-WEB.xlsx,Special Protection Area,2025-08-05T13:26:43.338078,,No,,,
UK9020331,Seas off Foula,SPA,Scotland inshore & Scotland offshore,Scottish Continental Shelf,399469.0,-8.522351,58.095965,2020-12-03 00:00:00,JNCC and NatureScot,555787506.0,UKSPAswithMarineComponents-20220316-LIVE-WEB.xlsx,Special Protection Area,2025-08-05T13:26:43.338078,,No,,,
UK9020332,Seas off St Kilda,SPA,Scotland inshore & Scotland offshore,Scottish Continental Shelf,341215.0,-2.485031,60.142036,2020-12-03 00:00:00,JNCC and NatureScot,555786413.0,UKSPAswithMarineComponents-20220316-LIVE-WEB.xlsx,Special Protection Area,2025-08-05T13:26:43.338078,,No,,,
UK9015022,Severn Estuary,SPA,England inshore & Wales inshore,Western Channel and Celtic Sea,24487.91,-3.049166667,51.22472222,1995-07-01 00:00:00,NE and NRW,95302.0,UKSPAswithMarineComponents-20220316-LIVE-WEB.xlsx,Special Protection Area,2025-08-05T13:26:43.338078,,Yes,,,
UK9001041,Shiant Isles,SPA,Scotland inshore,Minches and Western Scotland,6935.65,-6.37,57.89361111,1992-08-01 00:00:00,NatureScot,555786442.0,UKSPAswithMarineComponents-20220316-LIVE-WEB.xlsx,Special Protection Area,2025-08-05T13:26:43.338078,,No,,,
UK9014051,"Skomer, Skokholm and the Seas off Pembrokeshire / Sgomer, Sgogwm a Moroedd Penfro",SPA,Wales inshore & Wales offshore,Western Channel and Celtic Sea,166800.74,-5.6857,51.5483,1982-08-01 00:00:00,JNCC and NRW,555786251.0,UKSPAswithMarineComponents-20220316-LIVE-WEB.xlsx,Special Protection Area,2025-08-05T13:26:43.338078,,Yes,,,
UK9003032,Sleibhtean agus Cladach Thiriodh (Tiree Wetlands and Coast),SPA,Scotland inshore,Minches and Western Scotland,1939.76,-6.844,56.51,2001-10-01 00:00:00,NatureScot,900711.0,UKSPAswithMarineComponents-20220316-LIVE-WEB.xlsx,Special Protection Area,2025-08-05T13:26:43.338078,,Yes,,,
UK9020330,Solent and Dorset Coast,SPA,England inshore,Eastern Channel,88980.548015,-1.3893,50.704756,2020-01-16 00:00:00,NE,555787505.0,UKSPAswithMarineComponents-20220316-LIVE-WEB.xlsx,Special Protection Area,2025-08-05T13:26:43.338078,,No,,,
UK9011061,Solent and Southampton Water,SPA,England inshore,Eastern Channel,5401.12,-1.525833333,50.74027778,1998-10-01 00:00:00,NE,220079.0,UKSPAswithMarineComponents-20220316-LIVE-WEB.xlsx,Special Protection Area,2025-08-05T13:26:43.338078,,No,,,
UK9020318,Sound of Gigha,SPA,Scotland inshore,Minches and Western Scotland,36326.83,-5.682772,55.786367,2020-12-03 00:00:00,NatureScot,555787497.0,UKSPAswithMarineComponents-20220316-LIVE-WEB.xlsx,Special Protection Area,2025-08-05T13:26:43.338078,,No,,,
UK9001082,South Uist Machair and Lochs,SPA,Scotland inshore,Minches and Western Scotland & Scottish Continental Shelf,5027.31,-7.376,57.317,1982-08-01 00:00:00,NatureScot,555557170.0,UKSPAswithMarineComponents-20220316-LIVE-WEB.xlsx,Special Protection Area,2025-08-05T13:26:43.338078,,Yes,,,
UK9004271,St Abb's Head to Fast Castle,SPA,Scotland inshore,Northern North Sea,1736.75,-2.185,55.92416667,1997-08-01 00:00:00,NatureScot,555786366.0,UKSPAswithMarineComponents-20220316-LIVE-WEB.xlsx,Special Protection Area,2025-08-05T13:26:43.338078,,No,,,
UK9009121,Stour and Orwell Estuaries,SPA,England inshore,Southern North Sea,3667.37,1.160555556,51.95444444,1994-07-01 00:00:00,NE,555557180.0,UKSPAswithMarineComponents-20220316-LIVE-WEB.xlsx,Special Protection Area,2025-08-05T13:26:43.338078,,Yes,,,
UK9002181,Sule Skerry and Sule Stack,SPA,Scotland inshore,Scottish Continental Shelf,3909.45,-4.452222222,59.05722222,1994-03-01 00:00:00,NatureScot,555557186.0,UKSPAswithMarineComponents-20220316-LIVE-WEB.xlsx,Special Protection Area,2025-08-05T13:26:43.338078,,No,,,
UK9002511,Sumburgh Head,SPA,Scotland inshore,Northern North Sea & Scottish Continental Shelf,2478.91,-1.266388889,59.86,1996-03-01 00:00:00,NatureScot,555581025.0,UKSPAswithMarineComponents-20220316-LIVE-WEB.xlsx,Special Protection Area,2025-08-05T13:26:43.338078,,No,,,
UK9010141,Tamar Estuaries Complex,SPA,England inshore,Western Channel and Celtic Sea,1944.85,-4.195,50.43722222,1997-06-01 00:00:00,NE,555557195.0,UKSPAswithMarineComponents-20220316-LIVE-WEB.xlsx,Special Protection Area,2025-08-05T13:26:43.338078,,No,,,
UK9006061,Teesmouth and Cleveland Coast,SPA,England inshore,Northern North Sea,12210.6165,-1.150565,54.670023,1995-08-01 00:00:00,NE,555557197.0,UKSPAswithMarineComponents-20220316-LIVE-WEB.xlsx,Special Protection Area,2025-08-05T13:26:43.338078,,Yes,,,
UK9012021,Thames Estuary and Marshes,SPA,England inshore,Southern North Sea,4802.47,0.596388889,51.48555556,2000-03-01 00:00:00,NE,220086.0,UKSPAswithMarineComponents-20220316-LIVE-WEB.xlsx,Special Protection Area,2025-08-05T13:26:43.338078,,No,,,
UK9012071,Thanet Coast and Sandwich Bay,SPA,England inshore,Eastern Channel & Southern North Sea,1880.85,1.379722222,51.305,1994-07-01 00:00:00,NE,555557199.0,UKSPAswithMarineComponents-20220316-LIVE-WEB.xlsx,Special Protection Area,2025-08-05T13:26:43.338078,,Yes,,,
UK9013011,The Dee Estuary,SPA,England inshore & Wales inshore,Irish Sea,14294.95,-3.215555556,53.30222222,1985-07-01 00:00:00,NE and NRW,68262.0,UKSPAswithMarineComponents-20220316-LIVE-WEB.xlsx,Special Protection Area,2025-08-05T13:26:43.338078,,No,,,
UK9012011,The Swale,SPA,England inshore,Southern North Sea,6509.88,0.839166667,51.36083333,1982-08-01 00:00:00,NE,68263.0,UKSPAswithMarineComponents-20220316-LIVE-WEB.xlsx,Special Protection Area,2025-08-05T13:26:43.338078,,No,,,
UK9008021,The Wash,SPA,England inshore,Southern North Sea,62044.14,0.286666667,52.93777778,1988-03-01 00:00:00,NE,68276.0,UKSPAswithMarineComponents-20220316-LIVE-WEB.xlsx,Special Protection Area,2025-08-05T13:26:43.338078,,Yes,,,
UK9013031,"Traeth Lafan/ Lavan Sands, Conway Bay",SPA,Wales inshore,Irish Sea,2703.13,-4.041111111,53.73611111,1992-06-01 00:00:00,NRW,555786240.0,UKSPAswithMarineComponents-20220316-LIVE-WEB.xlsx,Special Protection Area,2025-08-05T13:26:43.338078,,No,,,
UK9002471,"Troup, Pennan and Lion's Heads",SPA,Scotland inshore,Northern North Sea,3365.2,-2.269722222,57.69361111,1997-03-01 00:00:00,NatureScot,555786323.0,UKSPAswithMarineComponents-20220316-LIVE-WEB.xlsx,Special Protection Area,2025-08-05T13:26:43.338078,,No,,,
UK9020319,West Coast of the Outer Hebrides,SPA,Scotland inshore,Scottish Continental Shelf,132170.04,-7.332725,57.064039,2020-12-03 00:00:00,NatureScot,555787498.0,UKSPAswithMarineComponents-20220316-LIVE-WEB.xlsx,Special Protection Area,2025-08-05T13:26:43.338078,,No,,,
UK9002101,West Westray,SPA,Scotland inshore,Scottish Continental Shelf,3780.16,-3.051944444,59.30583333,1996-08-01 00:00:00,NatureScot,555557222.0,UKSPAswithMarineComponents-20220316-LIVE-WEB.xlsx,Special Protection Area,2025-08-05T13:26:43.338078,,No,,,
UK9002221,"Ythan Estuary, Sands of Forvie and Meikle Loch",SPA,Scotland inshore,Northern North Sea,1014.62,-1.947468,57.323957,1998-03-01 00:00:00,NatureScot,555786461.0,UKSPAswithMarineComponents-20220316-LIVE-WEB.xlsx,Special Protection Area,2025-08-05T13:26:43.338078,,No,,,
UK0012566,Kenfig/ Cynffig,SAC,Wales inshore,Western Channel and Celtic Sea,1189.14,-3.7447,51.5183,,NRW,555786992.0,UKSACswithMarineComponents-20200527-LIVE-WEB.xlsx,Special Area of Conservation,2025-08-05T13:26:43.360476,,Yes,01-06-1995,01-12-2004,01-12-2004
UK0012570    ,Braunton Burrows,SAC,England inshore,Western Channel and Celtic Sea,1346.64,-4.212222222,51.09111111,,NE,555786993.0,UKSACswithMarineComponents-20200527-LIVE-WEB.xlsx,Special Area of Conservation,2025-08-05T13:26:43.360476,,Yes,01-01-1996,01-12-2004,01-04-2005
UK0012594,Rum,SAC,Scotland inshore,Minches and Western Scotland,10839.74,-6.3333,57.0,,SNH,555557144.0,UKSACswithMarineComponents-20200527-LIVE-WEB.xlsx,Special Area of Conservation,2025-08-05T13:26:43.360476,,Yes,01-06-1995,01-12-2004,01-03-2005
UK0012682,Taynish and Knapdale Woods,SAC,Scotland inshore,Minches and Western Scotland,1017.96,-5.5569,56.0403,,SNH,555581116.0,UKSACswithMarineComponents-20200527-LIVE-WEB.xlsx,Special Area of Conservation,2025-08-05T13:26:43.360476,,Yes,01-06-1995,01-12-2004,01-03-2005
UK0012687,Yell Sound Coast,SAC,Scotland inshore,Northern North Sea & Scottish Continental Shelf,1544.44,-1.15,60.46111111,,SNH,555557226.0,UKSACswithMarineComponents-20200527-LIVE-WEB.xlsx,Special Area of Conservation,2025-08-05T13:26:43.360476,,No,01-10-1998,01-12-2004,01-03-2005
UK0012694,Monach Islands,SAC,Scotland inshore,Scottish Continental Shelf,3646.56,-7.608333333,57.525,,SNH,555557088.0,UKSACswithMarineComponents-20200527-LIVE-WEB.xlsx,Special Area of Conservation,2025-08-05T13:26:43.360476,,Yes,01-10-1996,01-12-2004,01-03-2005
UK0012696,North Rona,SAC,Scotland inshore,Scottish Continental Shelf,628.53,-5.825,59.125,,SNH,555557110.0,UKSACswithMarineComponents-20200527-LIVE-WEB.xlsx,Special Area of Conservation,2025-08-05T13:26:43.360476,,Yes,01-10-1996,01-12-2004,01-03-2005
UK0012705,Sound of Barra,cSAC/SCI,Scotland inshore,Minches and Western Scotland & Scottish Continental Shelf,12507.39,-7.3517,57.0539,,SNH,555583065.0,UKSACswithMarineComponents-20200527-LIVE-WEB.xlsx,Special Area of Conservation,2025-08-05T13:26:43.360476,,No,01-08-2013,01-12-2014,
UK0012711,Mousa,SAC,Scotland inshore,Northern North Sea,529.74,-1.172222222,60.0,,SNH,555557095.0,UKSACswithMarineComponents-20200527-LIVE-WEB.xlsx,Special Area of Conservation,2025-08-05T13:26:43.360476,,No,01-10-1996,01-12-2004,01-03-2005
UK0012712,Cardigan Bay/ Bae Ceredigion,SAC,Wales inshore,Irish Sea,95857.06,-4.617222222,52.24638889,,NRW,555787028.0,UKSACswithMarineComponents-20200527-LIVE-WEB.xlsx,Special Area of Conservation,2025-08-05T13:26:43.360476,,Yes,01-01-1996,01-12-2004,01-12-2004
UK0012713,South Uist Machair,SAC,Scotland inshore,Minches and Western Scotland & Scottish Continental Shelf,3437.71,-7.333333333,57.31388889,,SNH,18973.0,UKSACswithMarineComponents-20200527-LIVE-WEB.xlsx,Special Area of Conservation,2025-08-05T13:26:43.360476,,Yes,01-10-1996,01-12-2004,01-03-2005
UK0012786,Durness,SAC,Scotland inshore,Scottish Continental Shelf,1213.8,-4.7683,58.5692,,SNH,135032.0,UKSACswithMarineComponents-20200527-LIVE-WEB.xlsx,Special Area of Conservation,2025-08-05T13:26:43.360476,,Yes,01-10-1996,01-12-2004,01-03-2005
UK0013025,Solway Firth,SAC,England inshore & Scotland inshore,Irish Sea,43676.16,-3.336666667,54.97083333,,NE and SNH,555557166.0,UKSACswithMarineComponents-20200527-LIVE-WEB.xlsx,Special Area of Conservation,2025-08-05T13:26:43.360476,,Yes,01-10-1996,01-12-2004,01-04-2005
UK0013027,Morecambe Bay,SAC,England inshore,Irish Sea,61538.23,-2.961666667,54.11916667,,NE,127895.0,UKSACswithMarineComponents-20200527-LIVE-WEB.xlsx,Special Area of Conservation,2025-08-05T13:26:43.360476,,Yes,01-10-1996,01-12-2004,01-04-2005
UK0013030,Severn Estuary/ Môr Hafren,SAC,England inshore & Wales inshore,Western Channel and Celtic Sea,73714.11,-2.978055556,51.46861111,,NE and NRW,555786279.0,UKSACswithMarineComponents-20200527-LIVE-WEB.xlsx,Special Area of Conservation,2025-08-05T13:26:43.360476,,Yes,01-08-2007,01-12-2008,01-12-2010
UK0013031,Drigg Coast,SAC,England inshore,Irish Sea,1396.0,-3.429722222,54.35055556,,NE,555556973.0,UKSACswithMarineComponents-20200527-LIVE-WEB.xlsx,Special Area of Conservation,2025-08-05T13:26:43.360476,,Yes,01-01-1996,01-12-2004,01-04-2005
UK0013036,Flamborough Head,SAC,England inshore,Northern North Sea & Southern North Sea,6403.01,-0.082,54.111,,NE,555556998.0,UKSACswithMarineComponents-20200527-LIVE-WEB.xlsx,Special Area of Conservation,2025-08-05T13:26:43.360476,,Yes,01-01-1996,01-12-2004,01-04-2005
UK0013039,Luce Bay and Sands,SAC,Scotland inshore,Irish Sea,48752.99,-4.75,54.75,,SNH,555557073.0,UKSACswithMarineComponents-20200527-LIVE-WEB.xlsx,Special Area of Conservation,2025-08-05T13:26:43.360476,,Yes,01-01-1996,01-12-2004,01-03-2005
UK0013107,Thanet Coast,SAC,England inshore,Southern North Sea,2815.95,1.375833333,51.39,,NE,555583021.0,UKSACswithMarineComponents-20200527-LIVE-WEB.xlsx,Special Area of Conservation,2025-08-05T13:26:43.360476,,No,01-10-1996,01-12-2004,01-04-2005
UK0013111,Plymouth Sound and Estuaries,SAC,England inshore,Western Channel and Celtic Sea,6386.95,-4.1475,50.335,,NE,555557126.0,UKSACswithMarineComponents-20200527-LIVE-WEB.xlsx,Special Area of Conservation,2025-08-05T13:26:43.360476,,Yes,01-10-1996,01-12-2004,01-04-2005
UK0013112,Fal and Helford,SAC,England inshore,Western Channel and Celtic Sea,6362.83,-5.150277778,50.09166667,,NE,555556988.0,UKSACswithMarineComponents-20200527-LIVE-WEB.xlsx,Special Area of Conservation,2025-08-05T13:26:43.360476,,Yes,01-10-1996,01-12-2004,01-04-2005
UK0013114,Lundy,SAC,England inshore,Western Channel and Celtic Sea,3070.95,-4.667777778,51.18694444,,NE,555583014.0,UKSACswithMarineComponents-20200527-LIVE-WEB.xlsx,Special Area of Conservation,2025-08-05T13:26:43.360476,,No,01-01-1996,01-12-2004,01-04-2005
UK0013116,Pembrokeshire Marine/ Sir Benfro Forol,SAC,Wales inshore,Irish Sea & Western Channel and Celtic Sea,138038.5,-5.615833333,51.72638889,,NRW,555786308.0,UKSACswithMarineComponents-20200527-LIVE-WEB.xlsx,Special Area of Conservation,2025-08-05T13:26:43.360476,,Yes,01-10-1997,01-12-2004,01-12-2004
UK0013117,Pen Llyn a`r Sarnau/ Lleyn Peninsula and the Sarnau,SAC,Wales inshore,Irish Sea,146010.52,-4.366388889,52.69138889,,NRW,555535784.0,UKSACswithMarineComponents-20200527-LIVE-WEB.xlsx,Special Area of Conservation,2025-08-05T13:26:43.360476,,No,01-01-1996,01-12-2004,01-12-2004
UK0013690,Essex Estuaries,SAC,England inshore,Southern North Sea,46109.95,1.043611111,51.70166667,,NE,555556984.0,UKSACswithMarineComponents-20200527-LIVE-WEB.xlsx,Special Area of Conservation,2025-08-05T13:26:43.360476,,No,01-10-1996,01-12-2004,01-04-2005
UK0013694,Isles of Scilly Complex,SAC,England inshore,Western Channel and Celtic Sea,26848.62,-6.343055556,49.91833333,,NE,555557039.0,UKSACswithMarineComponents-20200527-LIVE-WEB.xlsx,Special Area of Conservation,2025-08-05T13:26:43.360476,,Yes,01-01-1996,01-12-2004,01-04-2005
UK0013695,St Kilda,SAC,Scotland inshore,Scottish Continental Shelf,25467.57,-8.583333333,57.81666667,,SNH,555557174.0,UKSACswithMarineComponents-20200527-LIVE-WEB.xlsx,Special Area of Conservation,2025-08-05T13:26:43.360476,,Yes,01-10-1996,01-12-2004,01-03-2005
UK0014749,Loch of Stenness,SAC,Scotland inshore,Scottish Continental Shelf,792.59,-3.25,58.99583333,,SNH,555535810.0,UKSACswithMarineComponents-20200527-LIVE-WEB.xlsx,Special Area of Conservation,2025-08-05T13:26:43.360476,,No,01-10-1996,01-12-2004,01-03-2005
UK0014780,Orfordness - Shingle Street,SAC,England inshore,Southern North Sea,888.0,1.561388889,52.08138889,,NE,555535816.0,UKSACswithMarineComponents-20200527-LIVE-WEB.xlsx,Special Area of Conservation,2025-08-05T13:26:43.360476,,Yes,01-01-1996,01-12-2004,01-04-2005
UK0014787,Limestone Coast of South West Wales/ Arfordir Calchfaen de Orllewin Cymru,SAC,Wales inshore,Western Channel and Celtic Sea,1583.86,-5.055833333,51.63055556,,NRW,555535820.0,UKSACswithMarineComponents-20200527-LIVE-WEB.xlsx,Special Area of Conservation,2025-08-05T13:26:43.360476,,Yes,01-06-1995,01-12-2004,01-12-2004
UK0016612,Murlough,SAC,Northern Ireland inshore,Irish Sea,11903.9,-5.7833,54.2111,,DAERA,555557098.0,UKSACswithMarineComponents-20200527-LIVE-WEB.xlsx,Special Area of Conservation,2025-08-05T13:26:43.360476,,Yes,01-01-1996,01-12-2004,01-05-2005
UK0016618,Strangford Lough,SAC,Northern Ireland inshore,Irish Sea,15391.77,-5.594444444,54.44444444,,DAERA,555581145.0,UKSACswithMarineComponents-20200527-LIVE-WEB.xlsx,Special Area of Conservation,2025-08-05T13:26:43.360476,,Yes,01-01-1996,01-12-2004,01-05-2005
UK0017068,The Vadills,SAC,Scotland inshore,Scottish Continental Shelf,62.42,-1.3875,60.28333333,,SNH,555583064.0,UKSACswithMarineComponents-20200527-LIVE-WEB.xlsx,Special Area of Conservation,2025-08-05T13:26:43.360476,,No,01-10-1996,01-12-2004,01-03-2005
UK0017069,Papa Stour,SAC,Scotland inshore,Scottish Continental Shelf,2072.9,-1.691666667,60.33333333,,SNH,555557119.0,UKSACswithMarineComponents-20200527-LIVE-WEB.xlsx,Special Area of Conservation,2025-08-05T13:26:43.360476,,No,01-10-1996,01-12-2004,01-03-2005
UK0017070,Loch nam Madadh,SAC,Scotland inshore,Minches and Western Scotland,2320.9,-7.155555556,57.62222222,,SNH,555557068.0,UKSACswithMarineComponents-20200527-LIVE-WEB.xlsx,Special Area of Conservation,2025-08-05T13:26:43.360476,,No,01-10-1996,01-12-2004,01-03-2005
UK0017072,Berwickshire and North Northumberland Coast,SAC,England inshore & Scotland inshore,Northern North Sea,65226.12,-1.672222222,55.65388889,,NE and SNH,555556933.0,UKSACswithMarineComponents-20200527-LIVE-WEB.xlsx,Special Area of Conservation,2025-08-05T13:26:43.360476,,No,01-10-1996,01-12-2004,01-04-2005
UK0017073,Solent and Isle of Wight Lagoons,SAC,England inshore,Eastern Channel,37.93,-1.136944444,50.775,,NE,555535853.0,UKSACswithMarineComponents-20200527-LIVE-WEB.xlsx,Special Area of Conservation,2025-08-05T13:26:43.360476,,No,01-10-1996,01-12-2004,01-04-2005
UK0017074,Loch Roag Lagoons,SAC,Scotland inshore,Scottish Continental Shelf,43.14,-6.875,58.23333333,,SNH,555535854.0,UKSACswithMarineComponents-20200527-LIVE-WEB.xlsx,Special Area of Conservation,2025-08-05T13:26:43.360476,,No,01-10-1996,01-12-2004,01-03-2005
UK0017075,The Wash and North Norfolk Coast,SAC,England inshore,Southern North Sea,107718.0,0.318055556,52.93694444,,NE,555557205.0,UKSACswithMarineComponents-20200527-LIVE-WEB.xlsx,Special Area of Conservation,2025-08-05T13:26:43.360476,,Yes,01-10-1996,01-12-2004,01-04-2005
UK0017076,Chesil and the Fleet,SAC,England inshore,Eastern Channel,1634.91,-2.522777778,50.61305556,,NE,555556950.0,UKSACswithMarineComponents-20200527-LIVE-WEB.xlsx,Special Area of Conservation,2025-08-05T13:26:43.360476,,Yes,01-10-1996,01-12-2004,01-04-2005
UK0017077,"Lochs Duich, Long and Alsh Reefs",SAC,Scotland inshore,Minches and Western Scotland,2373.01,-5.575,57.275,,SNH,555557069.0,UKSACswithMarineComponents-20200527-LIVE-WEB.xlsx,Special Area of Conservation,2025-08-05T13:26:43.360476,,No,01-06-1999,01-12-2004,01-03-2005
UK0017096,Faray and Holm of Faray,SAC,Scotland inshore,Scottish Continental Shelf,781.33,-2.825,59.225,,SNH,555556990.0,UKSACswithMarineComponents-20200527-LIVE-WEB.xlsx,Special Area of Conservation,2025-08-05T13:26:43.360476,,No,01-10-1998,01-12-2004,01-03-2005
UK0017101,Obain Loch Euphoirt,SAC,Scotland inshore,Minches and Western Scotland,348.28,-7.191666667,57.53611111,,SNH,555535860.0,UKSACswithMarineComponents-20200527-LIVE-WEB.xlsx,Special Area of Conservation,2025-08-05T13:26:43.360476,,No,01-10-1996,01-12-2004,01-03-2005
UK0019793,Hascosay,SAC,Scotland inshore,Northern North Sea,164.67,-0.9875,60.6125,,SNH,555535879.0,UKSACswithMarineComponents-20200527-LIVE-WEB.xlsx,Special Area of Conservation,2025-08-05T13:26:43.360476,,Yes,01-06-1995,01-12-2004,01-03-2005
UK0019802,Sound of Arisaig (Loch Ailort to Loch Ceann Traigh),SAC,Scotland inshore,Minches and Western Scotland,4544.27,-5.870833333,56.80833333,,SNH,555557167.0,UKSACswithMarineComponents-20200527-LIVE-WEB.xlsx,Special Area of Conservation,2025-08-05T13:26:43.360476,,No,01-10-1996,01-12-2004,01-03-2005
UK0019803,Sunart,SAC,Scotland inshore,Minches and Western Scotland,10230.22,-5.808333333,56.675,,SNH,555557189.0,UKSACswithMarineComponents-20200527-LIVE-WEB.xlsx,Special Area of Conservation,2025-08-05T13:26:43.360476,,Yes,01-10-1996,01-12-2004,01-03-2005
UK0019806,Dornoch Firth and Morrich More,SAC,Scotland inshore,Northern North Sea,8701.22,-4.041666667,57.85,,SNH,555556972.0,UKSACswithMarineComponents-20200527-LIVE-WEB.xlsx,Special Area of Conservation,2025-08-05T13:26:43.360476,,Yes,01-01-1996,01-12-2004,01-03-2005
UK0019808,Moray Firth,SAC,Scotland inshore,Northern North Sea,151273.99,-3.725555556,57.81694444,,SNH,555557091.0,UKSACswithMarineComponents-20200527-LIVE-WEB.xlsx,Special Area of Conservation,2025-08-05T13:26:43.360476,,No,01-10-1996,01-12-2004,01-03-2005
UK0019838,North Norfolk Coast,SAC,England inshore,Southern North Sea,3148.6,0.610555556,52.96888889,,NE,68253.0,UKSACswithMarineComponents-20200527-LIVE-WEB.xlsx,Special Area of Conservation,2025-08-05T13:26:43.360476,,Yes,01-01-1996,01-12-2004,01-04-2005
UK0019839,Moine Mhor,SAC,Scotland inshore,Minches and Western Scotland,1149.02,-5.518055556,56.08055556,,SNH,555787646.0,UKSACswithMarineComponents-20200527-LIVE-WEB.xlsx,Special Area of Conservation,2025-08-05T13:26:43.360476,,Yes,01-01-1996,01-12-2004,01-03-2005
UK0020020,Carmarthen Bay and Estuaries/ Bae Caerfyrddin ac Aberoedd,SAC,Wales inshore,Western Channel and Celtic Sea,66092.05,-4.3764,51.6667,,NRW,555786212.0,UKSACswithMarineComponents-20200527-LIVE-WEB.xlsx,Special Area of Conservation,2025-08-05T13:26:43.360476,,Yes,01-01-1996,01-12-2004,01-12-2004
UK0020025,Glannau Môn: Cors heli / Anglesey Coast: Saltmarsh,SAC,Wales inshore,Irish Sea,1056.68,-4.421944444,53.16166667,,NRW,555557008.0,UKSACswithMarineComponents-20200527-LIVE-WEB.xlsx,Special Area of Conservation,2025-08-05T13:26:43.360476,,No,01-06-1995,01-12-2004,01-12-2004
UK0030041,Firth of Lorn,SAC,Scotland inshore,Minches and Western Scotland,20999.35,-5.716666667,56.21666667,,SNH,555556994.0,UKSACswithMarineComponents-20200527-LIVE-WEB.xlsx,Special Area of Conservation,2025-08-05T13:26:43.360476,,No,01-06-1999,01-12-2004,01-03-2005
UK0030055,Rathlin Island,SAC,Northern Ireland inshore,Minches and Western Scotland,3346.59,-6.216666667,55.3,,DAERA,555557134.0,UKSACswithMarineComponents-20200527-LIVE-WEB.xlsx,Special Area of Conservation,2025-08-05T13:26:43.360476,,Yes,01-03-1998,01-12-2004,01-05-2005
UK0030059,Solent Maritime,SAC,England inshore,Eastern Channel,11243.12,-0.927777778,50.79638889,,NE,555557165.0,UKSACswithMarineComponents-20200527-LIVE-WEB.xlsx,Special Area of Conservation,2025-08-05T13:26:43.360476,,Yes,01-10-1998,01-12-2004,01-04-2005
UK0030061,South Wight Maritime,SAC,England inshore,Eastern Channel,19866.12,-1.3475,50.59138889,,NE,555557171.0,UKSACswithMarineComponents-20200527-LIVE-WEB.xlsx,Special Area of Conservation,2025-08-05T13:26:43.360476,,Yes,01-10-1998,01-12-2004,01-04-2005
UK0030067,South-East Islay Skerries,SAC,Scotland inshore,Minches and Western Scotland,1500.41,-6.061111111,55.65277778,,SNH,555557169.0,UKSACswithMarineComponents-20200527-LIVE-WEB.xlsx,Special Area of Conservation,2025-08-05T13:26:43.360476,,No,01-09-2001,01-12-2004,01-03-2005
UK0030069,Sanday,SAC,Scotland inshore,Scottish Continental Shelf,10976.97,-2.5,59.28333333,,SNH,555557147.0,UKSACswithMarineComponents-20200527-LIVE-WEB.xlsx,Special Area of Conservation,2025-08-05T13:26:43.360476,,No,01-06-1999,01-12-2004,01-03-2005
UK0030076,"Alde, Ore and Butley Estuaries",SAC,England inshore,Southern North Sea,1632.63,1.568888889,52.10166667,,NE,555786765.0,UKSACswithMarineComponents-20200527-LIVE-WEB.xlsx,Special Area of Conservation,2025-08-05T13:26:43.360476,,No,01-01-2001,01-12-2004,01-04-2005
UK0030114,Bae Cemlyn/ Cemlyn Bay,SAC,Wales inshore,Irish Sea,43.17,-4.511111111,53.41166667,,NRW,555637372.0,UKSACswithMarineComponents-20200527-LIVE-WEB.xlsx,Special Area of Conservation,2025-08-05T13:26:43.360476,,Yes,01-10-2000,01-12-2004,01-12-2004
UK0030131,Dee Estuary/ Aber Dyfrdwy,SAC,England inshore & Wales inshore,Irish Sea,15805.27,-3.216111111,53.32833333,,NE and NRW,555786723.0,UKSACswithMarineComponents-20200527-LIVE-WEB.xlsx,Special Area of Conservation,2025-08-05T13:26:43.360476,,Yes,01-08-2007,01-12-2008,01-12-2009
UK0030154,Glen Beasdale,SAC,Scotland inshore,Minches and Western Scotland,546.37,-5.743,56.896,,SNH,555536043.0,UKSACswithMarineComponents-20200527-LIVE-WEB.xlsx,Special Area of Conservation,2025-08-05T13:26:43.360476,,Yes,01-12-2000,01-12-2004,01-03-2005
UK0030170,Humber Estuary,SAC,England inshore,Southern North Sea,36657.15,-0.734722222,53.58916667,,NE,95291.0,UKSACswithMarineComponents-20200527-LIVE-WEB.xlsx,Special Area of Conservation,2025-08-05T13:26:43.360476,,Yes,01-08-2007,01-12-2008,01-12-2009
UK0030171,Inverpolly,SAC,Scotland inshore,Minches and Western Scotland,11881.94,-5.1833,58.0639,,SNH,555536060.0,UKSACswithMarineComponents-20200527-LIVE-WEB.xlsx,Special Area of Conservation,2025-08-05T13:26:43.360476,,Yes,01-12-2000,01-12-2004,01-03-2005
UK0030172,Isle of May,SAC,Scotland inshore,Northern North Sea,356.64,-2.573611111,56.19027778,,SNH,555557038.0,UKSACswithMarineComponents-20200527-LIVE-WEB.xlsx,Special Area of Conservation,2025-08-05T13:26:43.360476,,No,01-01-2001,01-12-2004,01-03-2005
UK0030176,Kinloch and Kyleakin Hills,SAC,Scotland inshore,Minches and Western Scotland,5275.63,-5.7292,57.2167,,SNH,555536065.0,UKSACswithMarineComponents-20200527-LIVE-WEB.xlsx,Special Area of Conservation,2025-08-05T13:26:43.360476,,Yes,01-03-2001,01-12-2004,01-03-2005
UK0030182,Eileanan agus Sgeiran Lios mor,SAC,Scotland inshore,Minches and Western Scotland,1139.49,-5.4375,56.56805556,,SNH,555786641.0,UKSACswithMarineComponents-20200527-LIVE-WEB.xlsx,Special Area of Conservation,2025-08-05T13:26:43.360476,,No,01-03-2001,01-12-2004,01-03-2005
UK0030190,Loch Creran,SAC,Scotland inshore,Minches and Western Scotland,1226.48,-5.341666667,56.53222222,,SNH,555583035.0,UKSACswithMarineComponents-20200527-LIVE-WEB.xlsx,Special Area of Conservation,2025-08-05T13:26:43.360476,,No,01-03-2001,01-12-2004,01-03-2005
UK0030192,Loch Laxford,SAC,Scotland inshore,Minches and Western Scotland,1214.54,-5.084722222,58.40222222,,SNH,555557066.0,UKSACswithMarineComponents-20200527-LIVE-WEB.xlsx,Special Area of Conservation,2025-08-05T13:26:43.360476,,No,01-03-2001,01-12-2004,01-03-2005
UK0030202,Y Fenai a Bae Conwy/ Menai Strait and Conwy Bay,SAC,Wales inshore,Irish Sea,26501.64,-4.055,53.23444444,,NRW,555786663.0,UKSACswithMarineComponents-20200527-LIVE-WEB.xlsx,Special Area of Conservation,2025-08-05T13:26:43.360476,,No,01-03-2001,01-12-2004,01-12-2004
UK0030209,Loch Moidart and Loch Shiel Woods,SAC,Scotland inshore,Minches and Western Scotland,1753.04,-5.566666667,56.80972222,,SNH,555557067.0,UKSACswithMarineComponents-20200527-LIVE-WEB.xlsx,Special Area of Conservation,2025-08-05T13:26:43.360476,,Yes,01-01-2001,01-12-2004,01-03-2005
UK0030219,Mull Oakwoods,SAC,Scotland inshore,Minches and Western Scotland,1405.46,-5.68,56.4056,,SNH,555536106.0,UKSACswithMarineComponents-20200527-LIVE-WEB.xlsx,Special Area of Conservation,2025-08-05T13:26:43.360476,,Yes,01-12-2000,01-12-2004,01-03-2005
UK0030230,"Ascrib, Isay and Dunvegan",SAC,Scotland inshore,Minches and Western Scotland,2577.99,-6.638888889,57.51388889,,SNH,555556919.0,UKSACswithMarineComponents-20200527-LIVE-WEB.xlsx,Special Area of Conservation,2025-08-05T13:26:43.360476,,No,01-09-2001,01-12-2004,01-03-2005
UK0030231,Ardvar and Loch a' Mhuilinn Woodlands,SAC,Scotland inshore,Minches and Western Scotland,808.1,-5.0847,58.25,,SNH,555536118.0,UKSACswithMarineComponents-20200527-LIVE-WEB.xlsx,Special Area of Conservation,2025-08-05T13:26:43.360476,,Yes,01-01-2001,01-12-2004,01-03-2005
UK0030273,Sullom Voe,SAC,Scotland inshore,Scottish Continental Shelf,2691.43,-1.309722222,60.46388889,,SNH,555557187.0,UKSACswithMarineComponents-20200527-LIVE-WEB.xlsx,Special Area of Conservation,2025-08-05T13:26:43.360476,,No,01-11-2001,01-12-2004,01-03-2005
UK0030287,Tayvallich Juniper and Coast,SAC,Scotland inshore,Minches and Western Scotland,1213.16,-5.6681,55.9806,,SNH,555581116.0,UKSACswithMarineComponents-20200527-LIVE-WEB.xlsx,Special Area of Conservation,2025-08-05T13:26:43.360476,,Yes,01-12-2000,01-12-2004,01-03-2005
UK0030289,Treshnish Isles,SAC,Scotland inshore,Minches and Western Scotland,1962.66,-6.406666667,56.5,,SNH,555557214.0,UKSACswithMarineComponents-20200527-LIVE-WEB.xlsx,Special Area of Conservation,2025-08-05T13:26:43.360476,,No,01-03-2001,01-12-2004,01-03-2005
UK0030292,Tweed Estuary,SAC,England inshore,Northern North Sea,156.24,-2.011111111,55.77111111,,NE,555557216.0,UKSACswithMarineComponents-20200527-LIVE-WEB.xlsx,Special Area of Conservation,2025-08-05T13:26:43.360476,,Yes,01-03-2001,01-12-2004,01-04-2005
UK0030311,Firth of Tay and Eden Estuary,SAC,Scotland inshore,Northern North Sea,15441.63,-2.95,56.36666667,,SNH,220093.0,UKSACswithMarineComponents-20200527-LIVE-WEB.xlsx,Special Area of Conservation,2025-08-05T13:26:43.360476,,No,01-05-2002,01-12-2004,01-03-2005
UK0030317,Darwin Mounds,SAC,Scotland offshore,Atlantic North-West Approaches & Scottish Continental Shelf,137726.0,-7.2167,59.7583,,JNCC,555556964.0,UKSACswithMarineComponents-20200527-LIVE-WEB.xlsx,Special Area of Conservation,2025-08-05T13:26:43.360476,,No,01-08-2008,01-12-2009,01-12-2015
UK0030352,Dogger Bank,SAC,England offshore,Southern North Sea,1233115.0,2.2189,54.8575,,JNCC,555556968.0,UKSACswithMarineComponents-20200527-LIVE-WEB.xlsx,Special Area of Conservation,2025-08-05T13:26:43.360476,,No,01-08-2011,01-11-2012,01-09-2017
UK0030353,Haig Fras,SAC,England offshore,Western Channel and Celtic Sea,47569.38,-7.7823,50.2296,,JNCC,555557013.0,UKSACswithMarineComponents-20200527-LIVE-WEB.xlsx,Special Area of Conservation,2025-08-05T13:26:43.360476,,No,01-08-2008,01-12-2009,01-12-2015
UK0030354,Scanner Pockmark,SAC,Scotland offshore,Northern North Sea,674.0,0.9694,58.2852,,JNCC,555557151.0,UKSACswithMarineComponents-20200527-LIVE-WEB.xlsx,Special Area of Conservation,2025-08-05T13:26:43.360476,,No,01-08-2008,01-12-2009,01-12-2015
UK0030355,Wyville Thomson Ridge,SAC,Scotland offshore,Atlantic North-West Approaches & Scottish Continental Shelf,173995.0,-6.715,59.9736,,JNCC,555557224.0,UKSACswithMarineComponents-20200527-LIVE-WEB.xlsx,Special Area of Conservation,2025-08-05T13:26:43.360476,,No,01-08-2010,01-11-2011,01-09-2017
UK0030357,Braemar Pockmarks,SAC,Scotland offshore,Northern North Sea,1143.0,1.4747,58.9864,,JNCC,555556938.0,UKSACswithMarineComponents-20200527-LIVE-WEB.xlsx,Special Area of Conservation,2025-08-05T13:26:43.360476,,No,01-08-2008,01-12-2009,01-12-2015
UK0030358,North Norfolk Sandbanks and Saturn Reef,SAC,England offshore,Southern North Sea,360341.0,2.1208,53.3747,,JNCC,555557108.0,UKSACswithMarineComponents-20200527-LIVE-WEB.xlsx,Special Area of Conservation,2025-08-05T13:26:43.360476,,No,01-08-2010,01-11-2011,01-09-2017
UK0030359,Stanton Banks,SAC,Scotland offshore,Minches and Western Scotland & Scottish Continental Shelf,81727.0,-7.9078,56.2347,,JNCC,555557175.0,UKSACswithMarineComponents-20200527-LIVE-WEB.xlsx,Special Area of Conservation,2025-08-05T13:26:43.360476,,No,01-08-2008,01-12-2009,01-12-2015
UK0030363,North West Rockall Bank,SAC,Scotland offshore,Atlantic North-West Approaches,436526.0,-14.1678,57.7097,,JNCC,555557112.0,UKSACswithMarineComponents-20200527-LIVE-WEB.xlsx,Special Area of Conservation,2025-08-05T13:26:43.360476,,No,01-08-2010,01-11-2011,01-09-2017
UK0030364,East Mingulay,SAC,Scotland inshore,Minches and Western Scotland,11510.87,-7.4058,56.7889,,SNH,555556977.0,UKSACswithMarineComponents-20200527-LIVE-WEB.xlsx,Special Area of Conservation,2025-08-05T13:26:43.360476,,No,01-09-2011,01-11-2012,2019-02-07 00:00:00
UK0030365,Red Bay,SAC,Northern Ireland inshore,Irish Sea,966.279,-6.024,55.114,,DAERA,555557136.0,UKSACswithMarineComponents-20200527-LIVE-WEB.xlsx,Special Area of Conservation,2025-08-05T13:26:43.360476,,No,01-08-2010,01-11-2011,01-09-2017
UK0030368,Bassurelle Sandbank,SAC,England offshore,Eastern Channel,6709.0,1.0064,50.5931,,JNCC,555556927.0,UKSACswithMarineComponents-20200527-LIVE-WEB.xlsx,Special Area of Conservation,2025-08-05T13:26:43.360476,,No,01-08-2010,01-11-2011,01-09-2017
UK0030369,"Haisborough, Hammond and Winterton",SAC,England inshore & England offshore,Southern North Sea,146759.0,1.966,52.841,,JNCC and NE,555557014.0,UKSACswithMarineComponents-20200527-LIVE-WEB.xlsx,Special Area of Conservation,2025-08-05T13:26:43.360476,,No,01-08-2010,01-11-2011,01-09-2017
UK0030370,"Inner Dowsing, Race Bank and North Ridge",SAC,England inshore & England offshore,Southern North Sea,84514.0,0.721,53.257,,JNCC and NE,555557035.0,UKSACswithMarineComponents-20200527-LIVE-WEB.xlsx,Special Area of Conservation,2025-08-05T13:26:43.360476,,No,01-08-2010,01-11-2011,01-09-2017
UK0030371,Margate and Long Sands,SAC,England inshore,Southern North Sea,64876.85,1.37,51.565,,NE,555557080.0,UKSACswithMarineComponents-20200527-LIVE-WEB.xlsx,Special Area of Conservation,2025-08-05T13:26:43.360476,,No,01-08-2010,01-11-2011,01-09-2017
UK0030372,Lyme Bay and Torbay,SAC,England inshore,Eastern Channel & Western Channel and Celtic Sea,31246.73,-2.97,50.651,,NE,555557076.0,UKSACswithMarineComponents-20200527-LIVE-WEB.xlsx,Special Area of Conservation,2025-08-05T13:26:43.360476,,No,01-08-2010,01-11-2011,01-09-2017
UK0030373,Start Point to Plymouth Sound & Eddystone,SAC,England inshore,Western Channel and Celtic Sea,34089.58,-3.984,50.21,,NE,555786150.0,UKSACswithMarineComponents-20200527-LIVE-WEB.xlsx,Special Area of Conservation,2025-08-05T13:26:43.360476,,No,01-08-2010,01-11-2011,01-09-2017
UK0030374,Lizard Point,SAC,England inshore,Western Channel and Celtic Sea,13995.24,-5.256,49.968,,NE,555557064.0,UKSACswithMarineComponents-20200527-LIVE-WEB.xlsx,Special Area of Conservation,2025-08-05T13:26:43.360476,,No,01-08-2010,01-11-2011,01-09-2017
UK0030375,Lands End and Cape Bank,SAC,England inshore,Western Channel and Celtic Sea,30203.63,-5.825,50.201,,NE,555786152.0,UKSACswithMarineComponents-20200527-LIVE-WEB.xlsx,Special Area of Conservation,2025-08-05T13:26:43.360476,,No,01-08-2010,01-11-2011,01-09-2017
UK0030376,Shell Flat and Lune Deep,SAC,England inshore,Irish Sea,10567.49,-3.204,53.864,,NE,555557158.0,UKSACswithMarineComponents-20200527-LIVE-WEB.xlsx,Special Area of Conservation,2025-08-05T13:26:43.360476,,No,01-08-2010,01-11-2011,01-09-2017
UK0030379,Pisces Reef Complex,SAC,Northern Ireland offshore,Irish Sea,873.0,-5.2519,54.1478,,JNCC,555557124.0,UKSACswithMarineComponents-20200527-LIVE-WEB.xlsx,Special Area of Conservation,2025-08-05T13:26:43.360476,,No,01-08-2012,01-11-2013,01-09-2017
UK0030380,Wight-Barfleur Reef,SAC,England offshore,Eastern Channel,137344.0,-1.4736,50.2778,,JNCC,555557223.0,UKSACswithMarineComponents-20200527-LIVE-WEB.xlsx,Special Area of Conservation,2025-08-05T13:26:43.360476,,No,01-08-2012,01-11-2013,01-09-2017
UK0030381,Croker Carbonate Slabs,SAC,Wales offshore,Irish Sea,11599.0,-5.228,53.47,,JNCC,555556959.0,UKSACswithMarineComponents-20200527-LIVE-WEB.xlsx,Special Area of Conservation,2025-08-05T13:26:43.360476,,No,01-08-2012,01-11-2013,2019-09-05 00:00:00
UK0030382,Studland to Portland,SAC,England inshore,Eastern Channel,33184.28,-2.168,50.555,,NE,555557184.0,UKSACswithMarineComponents-20200527-LIVE-WEB.xlsx,Special Area of Conservation,2025-08-05T13:26:43.360476,,No,01-08-2012,01-11-2013,01-09-2017
UK0030383,Skerries and Causeway,SAC,Northern Ireland inshore,Minches and Western Scotland,10867.43,-6.597,55.243,,DAERA,555557162.0,UKSACswithMarineComponents-20200527-LIVE-WEB.xlsx,Special Area of Conservation,2025-08-05T13:26:43.360476,,No,01-08-2012,01-11-2013,01-09-2017
UK0030384,The Maidens,SAC,Northern Ireland inshore,Irish Sea,7464.05,-5.752,54.944,,DAERA,555557202.0,UKSACswithMarineComponents-20200527-LIVE-WEB.xlsx,Special Area of Conservation,2025-08-05T13:26:43.360476,,No,01-08-2012,01-11-2013,01-09-2017
UK0030385,Pobie Bank Reef,SAC,Scotland inshore & Scotland offshore,Northern North Sea,96575.0,-0.2931,60.5297,,JNCC and SNH,555557127.0,UKSACswithMarineComponents-20200527-LIVE-WEB.xlsx,Special Area of Conservation,2025-08-05T13:26:43.360476,,No,01-10-2012,01-11-2013,01-09-2017
UK0030386,Solan Bank Reef,SAC,Scotland inshore & Scotland offshore,Scottish Continental Shelf,85593.0,-5.08,59.0008,,JNCC and SNH,555557163.0,UKSACswithMarineComponents-20200527-LIVE-WEB.xlsx,Special Area of Conservation,2025-08-05T13:26:43.360476,,No,01-10-2012,01-11-2013,01-09-2017
UK0030387,Anton Dohrn Seamount,SAC,Scotland offshore,Atlantic North-West Approaches,142861.0,-11.0232,57.2146,,JNCC,555556917.0,UKSACswithMarineComponents-20200527-LIVE-WEB.xlsx,Special Area of Conservation,2025-08-05T13:26:43.360476,,No,01-10-2012,01-11-2013,01-09-2017
UK0030388,Hatton Bank,cSAC,Scotland offshore,Atlantic North-West Approaches,1569433.0,-16.9687,59.2578,,JNCC,555557017.0,UKSACswithMarineComponents-20200527-LIVE-WEB.xlsx,Special Area of Conservation,2025-08-05T13:26:43.360476,,No,01-10-2012,,
UK0030389,East Rockall Bank,SAC,Scotland offshore,Atlantic North-West Approaches,369489.0,-12.91,57.6544,,JNCC,555556978.0,UKSACswithMarineComponents-20200527-LIVE-WEB.xlsx,Special Area of Conservation,2025-08-05T13:26:43.360476,,No,01-10-2012,01-11-2013,01-09-2017
UK0030393,Inner Hebrides and the Minches,SAC,Scotland inshore,Minches and Western Scotland,1381391.37,-6.1179,57.8292,,SNH,555624866.0,UKSACswithMarineComponents-20200527-LIVE-WEB.xlsx,Special Area of Conservation,2025-08-05T13:26:43.360476,,No,01-09-2016,01-12-2017,2018-12-17 00:00:00
UK0030395,Southern North Sea,SAC,England inshore & England offshore,Eastern Channel & Northern North Sea & Southern North Sea,3695054.0,1.7999,53.551,,JNCC and NE,555624872.0,UKSACswithMarineComponents-20200527-LIVE-WEB.xlsx,Special Area of Conservation,2025-08-05T13:26:43.360476,,No,01-01-2017,01-12-2017,2019-02-26 00:00:00
UK0030396,Bristol Channel Approaches / Dynesfeydd Môr Hafren,SAC,England inshore & England offshore & Wales inshore & Wales offshore,Western Channel and Celtic Sea,584994.0,-4.9093,51.0291,,JNCC and NE and NRW,555786435.0,UKSACswithMarineComponents-20200527-LIVE-WEB.xlsx,Special Area of Conservation,2025-08-05T13:26:43.360476,,No,01-01-2017,01-12-2017,2019-02-26 00:00:00
UK0030397,West Wales Marine / Gorllewin Cymru Forol,SAC,Wales inshore & Wales offshore,Irish Sea & Western Channel and Celtic Sea,737614.0,-4.8897,52.2687,,JNCC and NRW,555624861.0,UKSACswithMarineComponents-20200527-LIVE-WEB.xlsx,Special Area of Conservation,2025-08-05T13:26:43.360476,,No,01-01-2017,01-12-2017,2019-02-26 00:00:00
UK0030398,North Anglesey Marine / Gogledd Môn Forol,SAC,Northern Ireland offshore & Wales inshore & Wales offshore,Irish Sea,324949.0,-4.8279,53.5663,,JNCC and NRW,555786437.0,UKSACswithMarineComponents-20200527-LIVE-WEB.xlsx,Special Area of Conservation,2025-08-05T13:26:43.360476,,No,01-01-2017,01-12-2017,2019-02-26 00:00:00
UK0030399,North Channel,SAC,Northern Ireland inshore & Northern Ireland offshore,Irish Sea,160367.0,-5.2936,54.4555,,JNCC and DAERA,555624876.0,UKSACswithMarineComponents-20200527-LIVE-WEB.xlsx,Special Area of Conservation,2025-08-05T13:26:43.360476,,No,01-01-2017,01-12-2017,2019-02-26 00:00:00
NEW_0001,Sombrero Island Nature Reserve Marine Park,"Ramsar Site, Wetland of International Importance",United Kingdom,Unknown,994.8891671167488,,,01-01-2018,Unknown,555637442.0,WDPA_Aug2025_marine_missing.csv,Marine MPA,2025-08-06T15:27:18.814201,,,,,
NEW_0002,Sandy Island,Marine Park,United Kingdom,Unknown,469.448358423951,,,01-01-1993,Unknown,32637.0,WDPA_Aug2025_marine_missing.csv,Marine MPA,2025-08-06T15:27:18.814210,,,,,
NEW_0003,Prickly Pear Cays and Seal Island Reefs,Marine Park,United Kingdom,Unknown,2938.73597074852,,,01-01-1993,Unknown,32636.0,WDPA_Aug2025_marine_missing.csv,Marine MPA,2025-08-06T15:27:18.814213,,,,,
NEW_0004,Sombrero Island Nature Reserve,Marine Park,United Kingdom,Unknown,994.8891671167488,,,01-01-1993,Unknown,32641.0,WDPA_Aug2025_marine_missing.csv,Marine MPA,2025-08-06T15:27:18.814220,,,,,
NEW_0005,Grand Cayman East Grouper Hole,Grouper Spawning Site,United Kingdom,Unknown,88.849165996316,,,01-01-1985,Unknown,303916.0,WDPA_Aug2025_marine_missing.csv,Marine MPA,2025-08-06T15:27:18.814222,,,,,
NEW_0006,Grand Cayman West Grouper Hole,Grouper Spawning Site,United Kingdom,Unknown,284.045533279173,,,01-01-2002,Unknown,303917.0,WDPA_Aug2025_marine_missing.csv,Marine MPA,2025-08-06T15:27:18.814224,,,,,
NEW_0007,Jennifer Bay - Deep Well Marine Park,Marine Park,United Kingdom,Unknown,67.6980885332885,,,01-01-1986,Unknown,12798.0,WDPA_Aug2025_marine_missing.csv,Marine MPA,2025-08-06T15:27:18.814232,,,,,
NEW_0008,Little Cayman East Grouper Hole,Grouper Spawning Site,United Kingdom,Unknown,322.388310535517,,,01-01-1985,Unknown,303912.0,WDPA_Aug2025_marine_missing.csv,Marine MPA,2025-08-06T15:27:18.814234,,,,,
NEW_0009,Little Cayman West Grouper Hole,Grouper Spawning Site,United Kingdom,Unknown,142.701903194752,,,01-01-2002,Unknown,303913.0,WDPA_Aug2025_marine_missing.csv,Marine MPA,2025-08-06T15:27:18.814238,,,,,
NEW_0010,Mary's Bay - East Point Replenishment Zone,Replenishment Zone,United Kingdom,Unknown,330.621956030611,,,01-01-1986,Unknown,12794.0,WDPA_Aug2025_marine_missing.csv,Marine MPA,2025-08-06T15:27:18.814240,,,,,
NEW_0011,South Hole Sound Replenishment Zone,Replenishment Zone,United Kingdom,Unknown,348.075204028271,,,01-01-1986,Unknown,12795.0,WDPA_Aug2025_marine_missing.csv,Marine MPA,2025-08-06T15:27:18.814242,,,,,
NEW_0012,South Sound Replenishment Zone,Replenishment Zone,United Kingdom,Unknown,290.315342409663,,,01-01-1986,Unknown,12779.0,WDPA_Aug2025_marine_missing.csv,Marine MPA,2025-08-06T15:27:18.814244,,,,,
NEW_0013,West Bay Bight Marine Park,Marine Park,United Kingdom,Unknown,152.397061953257,,,01-01-1986,Unknown,12787.0,WDPA_Aug2025_marine_missing.csv,Marine MPA,2025-08-06T15:27:18.814246,,,,,
NEW_0014,Bloody Bay Marine Park,Marine Park,United Kingdom,Unknown,197.194497743601,,,01-01-1986,Unknown,12799.0,WDPA_Aug2025_marine_missing.csv,Marine MPA,2025-08-06T15:27:18.814248,,,,,
NEW_0015,Cayman Brac West Grouper Hole,Grouper Spawning Site,United Kingdom,Unknown,184.715747327349,,,01-01-2002,Unknown,303915.0,WDPA_Aug2025_marine_missing.csv,Marine MPA,2025-08-06T15:27:18.814249,,,,,
NEW_0016,12-Mile Bank East Grouper Hole,Grouper Spawning Site,United Kingdom,Unknown,257.78696523265603,,,01-01-2003,Unknown,303918.0,WDPA_Aug2025_marine_missing.csv,Marine MPA,2025-08-06T15:27:18.814251,,,,,
NEW_0017,12-Mile Bank West Grouper Hole,Grouper Spawning Site,United Kingdom,Unknown,323.09833039868,,,01-01-2003,Unknown,303919.0,WDPA_Aug2025_marine_missing.csv,Marine MPA,2025-08-06T15:27:18.814256,,,,,
NEW_0018,Barkers Replenishment Zone,Replenishment Zone,United Kingdom,Unknown,334.066634074182,,,01-01-1986,Unknown,12777.0,WDPA_Aug2025_marine_missing.csv,Marine MPA,2025-08-06T15:27:18.814291,,,,,
NEW_0019,Cayman Brac East Grouper Hole,Grouper Spawning Site,United Kingdom,Unknown,115.003355581365,,,01-01-1985,Unknown,303914.0,WDPA_Aug2025_marine_missing.csv,Marine MPA,2025-08-06T15:27:18.814294,,,,,
NEW_0020,Frank Sound Replenishment Zone,Replenishment Zone,United Kingdom,Unknown,187.029722522752,,,01-01-1986,Unknown,12782.0,WDPA_Aug2025_marine_missing.csv,Marine MPA,2025-08-06T15:27:18.814296,,,,,
NEW_0021,George Town Marine Park,Marine Park,United Kingdom,Unknown,226.513141307614,,,01-01-1986,Unknown,303905.0,WDPA_Aug2025_marine_missing.csv,Marine MPA,2025-08-06T15:27:18.814297,,,,,
NEW_0022,Dennis Point Replenishment Zone,Replenishment Zone,United Kingdom,Unknown,20.1989096027132,,,01-01-1986,Unknown,12792.0,WDPA_Aug2025_marine_missing.csv,Marine MPA,2025-08-06T15:27:18.814299,,,,,
NEW_0023,Dick Sessingers Bay - Beach Point Marine Park,Marine Park,United Kingdom,Unknown,217.321369400814,,,01-01-1986,Unknown,12797.0,WDPA_Aug2025_marine_missing.csv,Marine MPA,2025-08-06T15:27:18.814301,,,,,
NEW_0024,No Dive Zone East,No Diving Zones,United Kingdom,Unknown,142.798938323259,,,01-01-1986,Unknown,303910.0,WDPA_Aug2025_marine_missing.csv,Marine MPA,2025-08-06T15:27:18.814303,,,,,
NEW_0025,No Dive Zone West,No Diving Zones,United Kingdom,Unknown,145.4824878581,,,01-01-1987,Unknown,303909.0,WDPA_Aug2025_marine_missing.csv,Marine MPA,2025-08-06T15:27:18.814308,,,,,
NEW_0026,North Sound Replenishment Zone,Replenishment Zone,United Kingdom,Unknown,3013.1735664959697,,,01-01-1986,Unknown,12780.0,WDPA_Aug2025_marine_missing.csv,Marine MPA,2025-08-06T15:27:18.814310,,,,,
NEW_0027,Pageant Beach Replenishment Zone,Replenishment Zone,United Kingdom,Unknown,45.1141355382647,,,01-01-1986,Unknown,100837.0,WDPA_Aug2025_marine_missing.csv,Marine MPA,2025-08-06T15:27:18.814314,,,,,
NEW_0028,Preston Bay Marine Park,Marine Park,United Kingdom,Unknown,98.1839347300841,,,01-01-1986,Unknown,12800.0,WDPA_Aug2025_marine_missing.csv,Marine MPA,2025-08-06T15:27:18.814316,,,,,
NEW_0029,Rum Point Marine Park,Marine Park,United Kingdom,Unknown,47.7997374115266,,,01-01-1986,Unknown,12789.0,WDPA_Aug2025_marine_missing.csv,Marine MPA,2025-08-06T15:27:18.814318,,,,,
NEW_0030,Sand Bluff Replenishment Zone,Replenishment Zone,United Kingdom,Unknown,139.697134132604,,,01-01-1986,Unknown,12784.0,WDPA_Aug2025_marine_missing.csv,Marine MPA,2025-08-06T15:27:18.814319,,,,,
NEW_0031,Sandbar Prohibited Scuba Diving Zone,Prohibited Scuba Diving Zone,United Kingdom,Unknown,23.663711540615505,,,01-01-2007,Unknown,555600325.0,WDPA_Aug2025_marine_missing.csv,Marine MPA,2025-08-06T15:27:18.814321,,,,,
NEW_0032,Sandbar Wildlife Interaction Zone,Wildlife Interaction Zone,United Kingdom,Unknown,552.2244950245699,,,01-01-2007,Unknown,555600326.0,WDPA_Aug2025_marine_missing.csv,Marine MPA,2025-08-06T15:27:18.814323,,,,,
NEW_0033,Seven Mile Beach Marine Park,Marine Park,United Kingdom,Unknown,513.4564813146769,,,01-01-1986,Unknown,12788.0,WDPA_Aug2025_marine_missing.csv,Marine MPA,2025-08-06T15:27:18.814325,,,,,
NEW_0034,Spanish Bay Marine Park,Marine Park,United Kingdom,Unknown,11.6144776525351,,,01-01-1986,Unknown,12786.0,WDPA_Aug2025_marine_missing.csv,Marine MPA,2025-08-06T15:27:18.814326,,,,,
NEW_0035,Spott Bay Replenishment Zone,Replenishment Zone,United Kingdom,Unknown,12.2581863182588,,,01-01-1986,Unknown,12791.0,WDPA_Aug2025_marine_missing.csv,Marine MPA,2025-08-06T15:27:18.814331,,,,,
NEW_0036,Spotter Bay Replenishment Zone,Replenishment Zone,United Kingdom,Unknown,57.0280448415735,,,01-01-1986,Unknown,12785.0,WDPA_Aug2025_marine_missing.csv,Marine MPA,2025-08-06T15:27:18.814332,,,,,
NEW_0037,Stingray City Wildlife Interaction Zone,Wildlife Interaction Zone,United Kingdom,Unknown,35.227301793218004,,,01-01-2007,Unknown,555600328.0,WDPA_Aug2025_marine_missing.csv,Marine MPA,2025-08-06T15:27:18.814337,,,,,
NEW_0038,West Bay Replenishment Zone,Replenishment Zone,United Kingdom,Unknown,71.574904561048,,,01-01-1986,Unknown,12778.0,WDPA_Aug2025_marine_missing.csv,Marine MPA,2025-08-06T15:27:18.814338,,,,,
NEW_0039,White Bay Marine Park,Marine Park,United Kingdom,Unknown,36.3045744350698,,,01-01-1986,Unknown,12796.0,WDPA_Aug2025_marine_missing.csv,Marine MPA,2025-08-06T15:27:18.814340,,,,,
NEW_0040,Jason West Cay,Nature Reserve,United Kingdom,Unknown,18.0002691052002,,,01-01-1973,Unknown,62907.0,WDPA_Aug2025_marine_missing.csv,Marine MPA,2025-08-06T15:27:18.814342,,,,,
NEW_0041,Pyramid Rock,Nature Reserve,United Kingdom,Unknown,1.2078536696976698,,,01-01-1978,Unknown,62916.0,WDPA_Aug2025_marine_missing.csv,Marine MPA,2025-08-06T15:27:18.814344,,,,,
NEW_0042,Seal Rocks S2D4,Nature Reserve,United Kingdom,Unknown,0.02399342304642,,,,Unknown,555622062.0,WDPA_Aug2025_marine_missing.csv,Marine MPA,2025-08-06T15:27:18.814346,,,,,
NEW_0043,Seal Rocks S2D5,Nature Reserve,United Kingdom,Unknown,0.10877110667904,,,,Unknown,555622063.0,WDPA_Aug2025_marine_missing.csv,Marine MPA,2025-08-06T15:27:18.814347,,,,,
NEW_0044,Seal Rocks S2D6,Nature Reserve,United Kingdom,Unknown,0.03279127850358,,,,Unknown,555622064.0,WDPA_Aug2025_marine_missing.csv,Marine MPA,2025-08-06T15:27:18.814349,,,,,
NEW_0045,Seal Rocks S2D7,Nature Reserve,United Kingdom,Unknown,0.03399096184094,,,,Unknown,555622065.0,WDPA_Aug2025_marine_missing.csv,Marine MPA,2025-08-06T15:27:18.814351,,,,,
NEW_0046,Skinflats,Nature Reserve,United Kingdom,Unknown,390.721744204691,,,01-01-1976,Unknown,555581050.0,WDPA_Aug2025_marine_missing.csv,Marine MPA,2025-08-06T15:27:18.814353,,,,,
NEW_0047,Poole Rocks,Marine Protected Area (OSPAR),United Kingdom,Unknown,374.347197013417,,,01-01-2014,Unknown,555583018.0,WDPA_Aug2025_marine_missing.csv,Marine MPA,2025-08-06T15:27:18.814357,,,,,
NEW_0048,Upper Loch Fyne and Loch Goil,Marine Protected Area (OSPAR),United Kingdom,Unknown,8716.65061113938,,,01-01-2014,Unknown,555583046.0,WDPA_Aug2025_marine_missing.csv,Marine MPA,2025-08-06T15:27:18.814361,,,,,
NEW_0049,Mousa to Boddam,Marine Protected Area (OSPAR),United Kingdom,Unknown,1295.07564988124,,,01-01-2014,Unknown,555583041.0,WDPA_Aug2025_marine_missing.csv,Marine MPA,2025-08-06T15:27:18.814363,,,,,
NEW_0050,Small Isles,Marine Protected Area (OSPAR),United Kingdom,Unknown,80077.78529171599,,,01-01-2014,Unknown,555583044.0,WDPA_Aug2025_marine_missing.csv,Marine MPA,2025-08-06T15:27:18.814364,,,,,
NEW_0051,Rosemary Bank Seamount,Marine Protected Area (OSPAR),United Kingdom,Unknown,693724.561291737,,,01-01-2014,Unknown,555583058.0,WDPA_Aug2025_marine_missing.csv,Marine MPA,2025-08-06T15:27:18.814366,,,,,
NEW_0052,"Ramsey, Isle of Man",Marine Protected Area (OSPAR),United Kingdom,Unknown,9426.14487891446,,,01-01-2012,Unknown,555557132.0,WDPA_Aug2025_marine_missing.csv,Marine MPA,2025-08-06T15:27:18.814368,,,,,
NEW_0053,Beachy Head West,Marine Protected Area (OSPAR),United Kingdom,Unknown,2374.76512186368,,,01-01-2014,Unknown,555583006.0,WDPA_Aug2025_marine_missing.csv,Marine MPA,2025-08-06T15:27:18.814370,,,,,
NEW_0054,Padstow Bay and Surrounds,Marine Protected Area (OSPAR),United Kingdom,Unknown,8977.31087494137,,,01-01-2014,Unknown,555583016.0,WDPA_Aug2025_marine_missing.csv,Marine MPA,2025-08-06T15:27:18.814372,,,,,
NEW_0055,The Manacles,Marine Protected Area (OSPAR),United Kingdom,Unknown,342.841346972039,,,01-01-2014,Unknown,555583022.0,WDPA_Aug2025_marine_missing.csv,Marine MPA,2025-08-06T15:27:18.814373,,,,,
NEW_0056,Papa Westray,Marine Protected Area (OSPAR),United Kingdom,Unknown,3276.6086507028904,,,01-01-2014,Unknown,555583043.0,WDPA_Aug2025_marine_missing.csv,Marine MPA,2025-08-06T15:27:18.814375,,,,,
NEW_0057,South Arran,Marine Protected Area (OSPAR),United Kingdom,Unknown,27814.3427505737,,,01-01-2014,Unknown,555583045.0,WDPA_Aug2025_marine_missing.csv,Marine MPA,2025-08-06T15:27:18.814379,,,,,
NEW_0058,Duddon Estuary,Marine Protected Area (OSPAR),United Kingdom,Unknown,5127.27643778464,,,01-01-2011,Unknown,555556974.0,WDPA_Aug2025_marine_missing.csv,Marine MPA,2025-08-06T15:27:18.814381,,,,,
NEW_0059,Upper Solway Flats and Marshes,Marine Protected Area (OSPAR),United Kingdom,Unknown,37504.1282607622,,,01-01-2011,Unknown,555557217.0,WDPA_Aug2025_marine_missing.csv,Marine MPA,2025-08-06T15:27:18.814383,,,,,
NEW_0060,Cumbria Coast,Marine Protected Area (OSPAR),United Kingdom,Unknown,1711.32235512387,,,01-01-2014,Unknown,555583009.0,WDPA_Aug2025_marine_missing.csv,Marine MPA,2025-08-06T15:27:18.814385,,,,,
NEW_0061,"Blackwater, Crouch, Roach and Colne Estuaries",Marine Protected Area (OSPAR),United Kingdom,Unknown,26714.8365035167,,,01-01-2014,Unknown,555583007.0,WDPA_Aug2025_marine_missing.csv,Marine MPA,2025-08-06T15:27:18.814389,,,,,
NEW_0062,Folkestone Pomerania,Marine Protected Area (OSPAR),United Kingdom,Unknown,3372.17084723426,,,01-01-2014,Unknown,555583010.0,WDPA_Aug2025_marine_missing.csv,Marine MPA,2025-08-06T15:27:18.814391,,,,,
NEW_0063,Kingmere,Marine Protected Area (OSPAR),United Kingdom,Unknown,4773.754888961021,,,01-01-2014,Unknown,555583013.0,WDPA_Aug2025_marine_missing.csv,Marine MPA,2025-08-06T15:27:18.814393,,,,,
NEW_0064,Skerries Bank and Surrounds,Marine Protected Area (OSPAR),United Kingdom,Unknown,24913.7660591635,,,01-01-2014,Unknown,555583019.0,WDPA_Aug2025_marine_missing.csv,Marine MPA,2025-08-06T15:27:18.814395,,,,,
NEW_0065,Torbay,Marine Protected Area (OSPAR),United Kingdom,Unknown,1937.60932742972,,,01-01-2014,Unknown,555583023.0,WDPA_Aug2025_marine_missing.csv,Marine MPA,2025-08-06T15:27:18.814397,,,,,
NEW_0066,Whitsand and Looe Bay,Marine Protected Area (OSPAR),United Kingdom,Unknown,5122.70256476716,,,01-01-2014,Unknown,555583025.0,WDPA_Aug2025_marine_missing.csv,Marine MPA,2025-08-06T15:27:18.814398,,,,,
NEW_0067,Fetlar to Haroldswick,Marine Protected Area (OSPAR),United Kingdom,Unknown,21026.2240372737,,,01-01-2014,Unknown,555583034.0,WDPA_Aug2025_marine_missing.csv,Marine MPA,2025-08-06T15:27:18.814402,,,,,
NEW_0068,Loch Sunart,Marine Protected Area (OSPAR),United Kingdom,Unknown,4801.37756308001,,,01-01-2014,Unknown,555583036.0,WDPA_Aug2025_marine_missing.csv,Marine MPA,2025-08-06T15:27:18.814404,,,,,
NEW_0069,Loch Sunart to the Sound of Jura,Marine Protected Area (OSPAR),United Kingdom,Unknown,73686.32365831989,,,01-01-2014,Unknown,555583037.0,WDPA_Aug2025_marine_missing.csv,Marine MPA,2025-08-06T15:27:18.814408,,,,,
NEW_0070,Noss Head,Marine Protected Area (OSPAR),United Kingdom,Unknown,753.691116628791,,,01-01-2014,Unknown,555583042.0,WDPA_Aug2025_marine_missing.csv,Marine MPA,2025-08-06T15:27:18.814410,,,,,
NEW_0071,Clyde Sea Sill,Marine Protected Area (OSPAR),United Kingdom,Unknown,71185.7831416927,,,01-01-2014,Unknown,555583032.0,WDPA_Aug2025_marine_missing.csv,Marine MPA,2025-08-06T15:27:18.814412,,,,,
NEW_0072,Wyre and Rousay Sounds,Marine Protected Area (OSPAR),United Kingdom,Unknown,1613.24809704272,,,01-01-2014,Unknown,555583048.0,WDPA_Aug2025_marine_missing.csv,Marine MPA,2025-08-06T15:27:18.814414,,,,,
NEW_0073,Wester Ross,Marine Protected Area (OSPAR),United Kingdom,Unknown,59738.81639986949,,,01-01-2014,Unknown,555583047.0,WDPA_Aug2025_marine_missing.csv,Marine MPA,2025-08-06T15:27:18.814416,,,,,
NEW_0074,Fylde,Marine Protected Area (OSPAR),United Kingdom,Unknown,26085.742041373,,,01-01-2014,Unknown,555583011.0,WDPA_Aug2025_marine_missing.csv,Marine MPA,2025-08-06T15:27:18.814417,,,,,
NEW_0075,Alderney West Coast and the Burhou Islands,"Ramsar Site, Wetland of International Importance",United Kingdom,Unknown,1377.82154647924,,,01-01-2005,Unknown,902745.0,WDPA_Aug2025_marine_missing.csv,Marine MPA,2025-08-06T15:27:18.814419,,,,,
NEW_0076,Vine Point and Ocean Hole,Nature Reserve,United Kingdom,Unknown,723.3214441500891,,,01-01-1987,Unknown,18778.0,WDPA_Aug2025_marine_missing.csv,Marine MPA,2025-08-06T15:27:18.814421,,,,,
NEW_0077,Bell Sound,Nature Reserve,United Kingdom,Unknown,1078.46472529133,,,01-01-1975,Unknown,18779.0,WDPA_Aug2025_marine_missing.csv,Marine MPA,2025-08-06T15:27:18.814425,,,,,
NEW_0078,North West Point Marine,National Park,United Kingdom,Unknown,999.763798122918,,,01-01-1987,Unknown,18784.0,WDPA_Aug2025_marine_missing.csv,Marine MPA,2025-08-06T15:27:18.814427,,,,,
NEW_0079,West Caicos Marine,National Park,United Kingdom,Unknown,377.319079436996,,,01-01-1992,Unknown,31295.0,WDPA_Aug2025_marine_missing.csv,Marine MPA,2025-08-06T15:27:18.814429,,,,,
NEW_0080,Columbus Landfall Marine,National Park,United Kingdom,Unknown,498.140311016928,,,01-01-1992,Unknown,36094.0,WDPA_Aug2025_marine_missing.csv,Marine MPA,2025-08-06T15:27:18.814431,,,,,
NEW_0081,Three Mary Cays,Sanctuary,United Kingdom,Unknown,18.3585758834659,,,01-01-1987,Unknown,18781.0,WDPA_Aug2025_marine_missing.csv,Marine MPA,2025-08-06T15:27:18.814433,,,,,
NEW_0082,Jost Van Dyke,Landscape/Seascape,United Kingdom,Unknown,104.198768433954,,,,Unknown,12839.0,WDPA_Aug2025_marine_missing.csv,Marine MPA,2025-08-06T15:27:18.814435,,,,,
NEW_0083,Mosquito Island,Habitat Management Area,United Kingdom,Unknown,16.7353786371715,,,,Unknown,14219.0,WDPA_Aug2025_marine_missing.csv,Marine MPA,2025-08-06T15:27:18.814436,,,,,
NEW_0084,Diamond Cay,National Park,United Kingdom,Unknown,0.5344210429625901,,,01-01-1991,Unknown,32645.0,WDPA_Aug2025_marine_missing.csv,Marine MPA,2025-08-06T15:27:18.814438,,,,,
NEW_0085,Beef Island,Marine Park,United Kingdom,Unknown,85.6230032233167,,,,Unknown,555624396.0,WDPA_Aug2025_marine_missing.csv,Marine MPA,2025-08-06T15:27:18.814440,,,,,
NEW_0086,Horseshoe Reef,Fisheries Protected,United Kingdom,Unknown,3741.07514332742,,,,Unknown,31308.0,WDPA_Aug2025_marine_missing.csv,Marine MPA,2025-08-06T15:27:18.814441,,,,,
NEW_0087,Anegada north,Landscape/Seascape,United Kingdom,Unknown,731.3602863085949,,,,Unknown,12902.0,WDPA_Aug2025_marine_missing.csv,Marine MPA,2025-08-06T15:27:18.814445,,,,,
NEW_0088,Dead Chest to James George Bay,Landscape/Seascape,United Kingdom,Unknown,833.3057006395061,,,,Unknown,14551.0,WDPA_Aug2025_marine_missing.csv,Marine MPA,2025-08-06T15:27:18.814447,,,,,
NEW_0089,Dogs Marine Area,Landscape/Seascape,United Kingdom,Unknown,1073.58459053511,,,,Unknown,12837.0,WDPA_Aug2025_marine_missing.csv,Marine MPA,2025-08-06T15:27:18.814449,,,,,
NEW_0090,Ginger Island,Landscape/Seascape,United Kingdom,Unknown,221.808769340951,,,,Unknown,14214.0,WDPA_Aug2025_marine_missing.csv,Marine MPA,2025-08-06T15:27:18.814451,,,,,
NEW_0091,Great Carrot Bay,Habitat Management Area,United Kingdom,Unknown,23.1536962953722,,,,Unknown,14076.0,WDPA_Aug2025_marine_missing.csv,Marine MPA,2025-08-06T15:27:18.814452,,,,,
NEW_0092,Guana Is.,Fisheries Protected,United Kingdom,Unknown,23.265770247825905,,,,Unknown,14078.0,WDPA_Aug2025_marine_missing.csv,Marine MPA,2025-08-06T15:27:18.814454,,,,,
NEW_0093,Norman Island,Marine Park,United Kingdom,Unknown,218.44773828195704,,,,Unknown,12840.0,WDPA_Aug2025_marine_missing.csv,Marine MPA,2025-08-06T15:27:18.814456,,,,,
NEW_0094,Peter Island,Marine Park,United Kingdom,Unknown,385.965150689412,,,,Unknown,14221.0,WDPA_Aug2025_marine_missing.csv,Marine MPA,2025-08-06T15:27:18.814463,,,,,
NEW_0095,Prickly Pear,Marine Park,United Kingdom,Unknown,102.670132053977,,,,Unknown,12841.0,WDPA_Aug2025_marine_missing.csv,Marine MPA,2025-08-06T15:27:18.814465,,,,,
NEW_0096,RMS Rhone,Marine Park,United Kingdom,Unknown,263.033881495441,,,01-01-1980,Unknown,78.0,WDPA_Aug2025_marine_missing.csv,Marine MPA,2025-08-06T15:27:18.814467,,,,,
NEW_0097,Ginger Island,Fisheries Protected,United Kingdom,Unknown,32.1864161065783,,,,Unknown,555624402.0,WDPA_Aug2025_marine_missing.csv,Marine MPA,2025-08-06T15:27:18.814471,,,,,
NEW_0098,Salt and Cooper Is,Marine Park,United Kingdom,Unknown,272.134624851186,,,,Unknown,14210.0,WDPA_Aug2025_marine_missing.csv,Marine MPA,2025-08-06T15:27:18.814473,,,,,
NEW_0099,Frenchmans Cay,Fisheries Protected,United Kingdom,Unknown,12.9784750178705,,,,Unknown,555624397.0,WDPA_Aug2025_marine_missing.csv,Marine MPA,2025-08-06T15:27:18.814477,,,,,
NEW_0100,The Indians,National Park,United Kingdom,Unknown,0.1181433468377499,,,,Unknown,555624429.0,WDPA_Aug2025_marine_missing.csv,Marine MPA,2025-08-06T15:27:18.814479,,,,,
NEW_0101,RMS Rhone anchor,Marine Park,United Kingdom,Unknown,6.9017081028011695,,,01-01-1980,Unknown,555624435.0,WDPA_Aug2025_marine_missing.csv,Marine MPA,2025-08-06T15:27:18.814480,,,,,
NEW_0102,Thomas George Bay,Marine Park,United Kingdom,Unknown,7.213768050289571,,,,Unknown,555624418.0,WDPA_Aug2025_marine_missing.csv,Marine MPA,2025-08-06T15:27:18.814482,,,,,
NEW_0103,Sandy Spit,Natural Monument,United Kingdom,Unknown,0.16505845648643,,,,Unknown,555624417.0,WDPA_Aug2025_marine_missing.csv,Marine MPA,2025-08-06T15:27:18.814484,,,,,
NEW_0104,Watsons Rock,National Park,United Kingdom,Unknown,0.46619254512974,,,01-01-1995,Unknown,555624434.0,WDPA_Aug2025_marine_missing.csv,Marine MPA,2025-08-06T15:27:18.814486,,,,,
NEW_0105,Anegada south west,Fisheries Protected,United Kingdom,Unknown,95.0224375567191,,,,Unknown,555624400.0,WDPA_Aug2025_marine_missing.csv,Marine MPA,2025-08-06T15:27:18.814487,,,,,
NEW_0106,Anegada west,Landscape/Seascape,United Kingdom,Unknown,401.176797724101,,,,Unknown,555624421.0,WDPA_Aug2025_marine_missing.csv,Marine MPA,2025-08-06T15:27:18.814489,,,,,
NEW_0107,Beef Island,Fisheries Protected,United Kingdom,Unknown,39.34984321197,,,,Unknown,555624393.0,WDPA_Aug2025_marine_missing.csv,Marine MPA,2025-08-06T15:27:18.814493,,,,,
NEW_0108,Great Harbour,Landscape/Seascape,United Kingdom,Unknown,194.859316883776,,,,Unknown,555624404.0,WDPA_Aug2025_marine_missing.csv,Marine MPA,2025-08-06T15:27:18.814495,,,,,
NEW_0109,Great Thatch,Managed Resource,United Kingdom,Unknown,110.710592967896,,,,Unknown,555624405.0,WDPA_Aug2025_marine_missing.csv,Marine MPA,2025-08-06T15:27:18.814496,,,,,
NEW_0110,Great Thatch,Marine Park,United Kingdom,Unknown,36.5213248786441,,,,Unknown,555624410.0,WDPA_Aug2025_marine_missing.csv,Marine MPA,2025-08-06T15:27:18.814498,,,,,
NEW_0111,Virgin Gorda,Fisheries Protected,United Kingdom,Unknown,57.0080835065714,,,,Unknown,555624437.0,WDPA_Aug2025_marine_missing.csv,Marine MPA,2025-08-06T15:27:18.814502,,,,,
NEW_0112,"Green Cay, Sandy Cay, Sandy Spit",Marine Park,United Kingdom,Unknown,303.544535495888,,,,Unknown,555624422.0,WDPA_Aug2025_marine_missing.csv,Marine MPA,2025-08-06T15:27:18.814504,,,,,
NEW_0113,Long Bay,Marine Park,United Kingdom,Unknown,21.0598998278509,,,,Unknown,555624426.0,WDPA_Aug2025_marine_missing.csv,Marine MPA,2025-08-06T15:27:18.814506,,,,,
NEW_0114,Norman Island,Landscape/Seascape,United Kingdom,Unknown,80.6863146206441,,,,Unknown,555624432.0,WDPA_Aug2025_marine_missing.csv,Marine MPA,2025-08-06T15:27:18.814507,,,,,
NEW_0115,Scrub Island,Landscape/Seascape,United Kingdom,Unknown,177.881932091645,,,,Unknown,555624436.0,WDPA_Aug2025_marine_missing.csv,Marine MPA,2025-08-06T15:27:18.814509,,,,,
NEW_0116,Smugglers Cove,Marine Park,United Kingdom,Unknown,17.9897896774381,,,,Unknown,555624394.0,WDPA_Aug2025_marine_missing.csv,Marine MPA,2025-08-06T15:27:18.814511,,,,,
NEW_0117,Tobagos,Landscape/Seascape,United Kingdom,Unknown,445.358289762768,,,,Unknown,555624423.0,WDPA_Aug2025_marine_missing.csv,Marine MPA,2025-08-06T15:27:18.814515,,,,,
NEW_0118,Tortola,Species Management Area,United Kingdom,Unknown,288.213515967631,,,,Unknown,555624433.0,WDPA_Aug2025_marine_missing.csv,Marine MPA,2025-08-06T15:27:18.814516,,,,,
NEW_0119,Virgin Gorda,Landscape/Seascape,United Kingdom,Unknown,1440.79708055779,,,,Unknown,555624407.0,WDPA_Aug2025_marine_missing.csv,Marine MPA,2025-08-06T15:27:18.814518,,,,,
NEW_0120,Virgin Gorda,Marine Park,United Kingdom,Unknown,43.1065501416377,,,,Unknown,555624412.0,WDPA_Aug2025_marine_missing.csv,Marine MPA,2025-08-06T15:27:18.814520,,,,,
NEW_0121,Virgin Gorda north,Fisheries Protected,United Kingdom,Unknown,1405.10865047114,,,,Unknown,555624431.0,WDPA_Aug2025_marine_missing.csv,Marine MPA,2025-08-06T15:27:18.814522,,,,,
NEW_0122,Virgin Gorda South,Landscape/Seascape,United Kingdom,Unknown,1003.30909795203,,,,Unknown,555624413.0,WDPA_Aug2025_marine_missing.csv,Marine MPA,2025-08-06T15:27:18.814523,,,,,
NEW_0123,Les Pierres de Lecq,"Ramsar Site, Wetland of International Importance",United Kingdom,Unknown,510.009797151649,,,01-01-2005,Unknown,902397.0,WDPA_Aug2025_marine_missing.csv,Marine MPA,2025-08-06T15:27:18.814525,,,,,
NEW_0124,Les Minquiers,"Ramsar Site, Wetland of International Importance",United Kingdom,Unknown,9577.52028747552,,,01-01-2005,Unknown,902396.0,WDPA_Aug2025_marine_missing.csv,Marine MPA,2025-08-06T15:27:18.814529,,,,,
NEW_0125,Les Ecrehou and Les Dirouilles,"Ramsar Site, Wetland of International Importance",United Kingdom,Unknown,5438.7392069811,,,01-01-2005,Unknown,902395.0,WDPA_Aug2025_marine_missing.csv,Marine MPA,2025-08-06T15:27:18.814531,,,,,
NEW_0126,"South East Coast of Jersey, Channel Islands","Ramsar Site, Wetland of International Importance",United Kingdom,Unknown,3158.11760987986,,,01-01-2000,Unknown,900586.0,WDPA_Aug2025_marine_missing.csv,Marine MPA,2025-08-06T15:27:18.814533,,,,,
NEW_0127,South Georgia and South Sandwich Islands Marine Protected Area,Marine Protected Area,United Kingdom,Unknown,123697566.164561,,,01-01-2012,Unknown,555547601.0,WDPA_Aug2025_marine_missing.csv,Marine MPA,2025-08-06T15:27:18.814537,,,,,
NEW_0128,Hartland Point to Tintagel,Marine Protected Area (OSPAR),United Kingdom,Unknown,30225.3032592713,,,01-01-2016,Unknown,555622026.0,WDPA_Aug2025_marine_missing.csv,Marine MPA,2025-08-06T15:27:18.814539,,,,,
NEW_0129,Allonby Bay,Marine Protected Area (OSPAR),United Kingdom,Unknown,3868.79766192493,,,01-01-2016,Unknown,555622017.0,WDPA_Aug2025_marine_missing.csv,Marine MPA,2025-08-06T15:27:18.814540,,,,,
NEW_0130,Bideford to Foreland Point,Marine Protected Area (OSPAR),United Kingdom,Unknown,10064.0509579215,,,01-01-2016,Unknown,555622018.0,WDPA_Aug2025_marine_missing.csv,Marine MPA,2025-08-06T15:27:18.814543,,,,,
NEW_0131,Cromer Shoal Chalk Beds,Marine Protected Area (OSPAR),United Kingdom,Unknown,32023.8264352054,,,01-01-2016,Unknown,555622019.0,WDPA_Aug2025_marine_missing.csv,Marine MPA,2025-08-06T15:27:18.814544,,,,,
NEW_0132,Coquet to St Mary's,Marine Protected Area (OSPAR),United Kingdom,Unknown,19078.813924535,,,01-01-2016,Unknown,555622020.0,WDPA_Aug2025_marine_missing.csv,Marine MPA,2025-08-06T15:27:18.814546,,,,,
NEW_0133,Dover to Deal,Marine Protected Area (OSPAR),United Kingdom,Unknown,979.1664371841208,,,01-01-2016,Unknown,555622021.0,WDPA_Aug2025_marine_missing.csv,Marine MPA,2025-08-06T15:27:18.814548,,,,,
NEW_0134,Dover to Folkestone,Marine Protected Area (OSPAR),United Kingdom,Unknown,1933.163144283,,,01-01-2016,Unknown,555622022.0,WDPA_Aug2025_marine_missing.csv,Marine MPA,2025-08-06T15:27:18.814550,,,,,
NEW_0135,Mounts Bay,Marine Protected Area (OSPAR),United Kingdom,Unknown,1156.14906675359,,,01-01-2016,Unknown,555622028.0,WDPA_Aug2025_marine_missing.csv,Marine MPA,2025-08-06T15:27:18.814551,,,,,
NEW_0136,Runnel Stone (Land's End),Marine Protected Area (OSPAR),United Kingdom,Unknown,1982.54370197142,,,01-01-2016,Unknown,555622032.0,WDPA_Aug2025_marine_missing.csv,Marine MPA,2025-08-06T15:27:18.814553,,,,,
NEW_0137,Newquay and The Gannel,Marine Protected Area (OSPAR),United Kingdom,Unknown,838.1886385323419,,,01-01-2016,Unknown,555622029.0,WDPA_Aug2025_marine_missing.csv,Marine MPA,2025-08-06T15:27:18.814557,,,,,
NEW_0138,Runswick Bay,Marine Protected Area (OSPAR),United Kingdom,Unknown,6725.93028690264,,,01-01-2016,Unknown,555622033.0,WDPA_Aug2025_marine_missing.csv,Marine MPA,2025-08-06T15:27:18.814559,,,,,
NEW_0139,The Needles,Marine Protected Area (OSPAR),United Kingdom,Unknown,1096.4424950714802,,,01-01-2016,Unknown,555622034.0,WDPA_Aug2025_marine_missing.csv,Marine MPA,2025-08-06T15:27:18.814561,,,,,
NEW_0140,Utopia,Marine Protected Area (OSPAR),United Kingdom,Unknown,271.340244756772,,,01-01-2016,Unknown,555622036.0,WDPA_Aug2025_marine_missing.csv,Marine MPA,2025-08-06T15:27:18.814563,,,,,
NEW_0141,Waterfoot,Marine Protected Area (OSPAR),United Kingdom,Unknown,81.0953096900046,,,01-01-2017,Unknown,555624870.0,WDPA_Aug2025_marine_missing.csv,Marine MPA,2025-08-06T15:27:18.814565,,,,,
NEW_0142,Loch Carron,Marine Protected Area (OSPAR),United Kingdom,Unknown,1508.69842181331,,,01-01-2017,Unknown,555624865.0,WDPA_Aug2025_marine_missing.csv,Marine MPA,2025-08-06T15:27:18.814566,,,,,
NEW_0143,Rathlin,Marine Protected Area (OSPAR),United Kingdom,Unknown,9012.53585557022,,,01-01-2017,Unknown,555624869.0,WDPA_Aug2025_marine_missing.csv,Marine MPA,2025-08-06T15:27:18.814568,,,,,
NEW_0144,Les Minquiers,Marine Protected Area (OSPAR),United Kingdom,Unknown,4751.51762288369,,,01-01-2018,Unknown,555625738.0,WDPA_Aug2025_marine_missing.csv,Marine MPA,2025-08-06T15:27:18.814570,,,,,
NEW_0145,Douglas Bay,Marine Protected Area (OSPAR),United Kingdom,Unknown,435.235122011261,,,01-01-2018,Unknown,555637389.0,WDPA_Aug2025_marine_missing.csv,Marine MPA,2025-08-06T15:27:18.814574,,,,,
NEW_0146,Laxey Bay,Marine Protected Area (OSPAR),United Kingdom,Unknown,382.096845441991,,,01-01-2018,Unknown,555637391.0,WDPA_Aug2025_marine_missing.csv,Marine MPA,2025-08-06T15:27:18.814576,,,,,
NEW_0147,Langness,Marine Protected Area (OSPAR),United Kingdom,Unknown,8764.00725024349,,,01-01-2018,Unknown,555637390.0,WDPA_Aug2025_marine_missing.csv,Marine MPA,2025-08-06T15:27:18.814580,,,,,
NEW_0148,Niarbyl Bay,Marine Protected Area (OSPAR),United Kingdom,Unknown,553.91488405198,,,01-01-2018,Unknown,555637393.0,WDPA_Aug2025_marine_missing.csv,Marine MPA,2025-08-06T15:27:18.814582,,,,,
